[{"code":"GKA","name":"Goroka Airport","city":"Goroka","country":"Papua New Guinea","lat":-6.08169,"lng":145.392},{"code":"MAG","name":"Madang Airport","city":"Madang","country":"Papua New Guinea","lat":-5.20708,"lng":145.789},{"code":"HGU","name":"Mount Hagen Kagamuga Airport","city":"Mount Hagen","country":"Papua New Guinea","lat":-5.82679,"lng":144.29601},{"code":"LAE","name":"Nadzab Airport","city":"Nadzab","country":"Papua New Guinea","lat":-6.5698,"lng":146.72598},{"code":"POM","name":"Port Moresby Jacksons International Airport","city":"Port Moresby","country":"Papua New Guinea","lat":-9.44338,"lng":147.22},{"code":"WWK","name":"Wewak International Airport","city":"Wewak","country":"Papua New Guinea","lat":-3.58383,"lng":143.66901},{"code":"UAK","name":"Narsarsuaq Airport","city":"Narssarssuaq","country":"Greenland","lat":61.1605,"lng":-45.426},{"code":"GOH","name":"Godthaab / Nuuk Airport","city":"Godthaab","country":"Greenland","lat":64.1909,"lng":-51.6781},{"code":"SFJ","name":"Kangerlussuaq Airport","city":"Sondrestrom","country":"Greenland","lat":67.01222,"lng":-50.7116},{"code":"THU","name":"Thule Air Base","city":"Thule","country":"Greenland","lat":76.5312,"lng":-68.7032},{"code":"AEY","name":"Akureyri Airport","city":"Akureyri","country":"Iceland","lat":65.66,"lng":-18.0727},{"code":"EGS","name":"Egilsstaðir Airport","city":"Egilsstadir","country":"Iceland","lat":65.2833,"lng":-14.4014},{"code":"HFN","name":"Hornafjörður Airport","city":"Hofn","country":"Iceland","lat":64.2956,"lng":-15.2272},{"code":"HZK","name":"Húsavík Airport","city":"Husavik","country":"Iceland","lat":65.9523,"lng":-17.426},{"code":"IFJ","name":"Ísafjörður Airport","city":"Isafjordur","country":"Iceland","lat":66.0581,"lng":-23.1353},{"code":"KEF","name":"Keflavik International Airport","city":"Keflavik","country":"Iceland","lat":63.985,"lng":-22.6056},{"code":"PFJ","name":"Patreksfjörður Airport","city":"Patreksfjordur","country":"Iceland","lat":65.5558,"lng":-23.965},{"code":"RKV","name":"Reykjavik Airport","city":"Reykjavik","country":"Iceland","lat":64.13,"lng":-21.9406},{"code":"SIJ","name":"Siglufjörður Airport","city":"Siglufjordur","country":"Iceland","lat":66.1333,"lng":-18.9167},{"code":"VEY","name":"Vestmannaeyjar Airport","city":"Vestmannaeyjar","country":"Iceland","lat":63.4243,"lng":-20.2789},{"code":"YAM","name":"Sault Ste Marie Airport","city":"Sault Sainte Marie","country":"Canada","lat":46.485,"lng":-84.5094},{"code":"YAY","name":"St. Anthony Airport","city":"St. Anthony","country":"Canada","lat":51.3919,"lng":-56.0831},{"code":"YAZ","name":"Tofino / Long Beach Airport","city":"Tofino","country":"Canada","lat":49.07983,"lng":-125.77558},{"code":"YBB","name":"Kugaaruk Airport","city":"Pelly Bay","country":"Canada","lat":68.5344,"lng":-89.8081},{"code":"YBC","name":"Baie Comeau Airport","city":"Baie Comeau","country":"Canada","lat":49.1325,"lng":-68.2044},{"code":"YBG","name":"CFB Bagotville","city":"Bagotville","country":"Canada","lat":48.3306,"lng":-70.9964},{"code":"YBK","name":"Baker Lake Airport","city":"Baker Lake","country":"Canada","lat":64.2989,"lng":-96.0778},{"code":"YBL","name":"Campbell River Airport","city":"Campbell River","country":"Canada","lat":49.9508,"lng":-125.271},{"code":"YBR","name":"Brandon Municipal Airport","city":"Brandon","country":"Canada","lat":49.91,"lng":-99.9519},{"code":"YCB","name":"Cambridge Bay Airport","city":"Cambridge Bay","country":"Canada","lat":69.1081,"lng":-105.138},{"code":"YCD","name":"Nanaimo Airport","city":"Nanaimo","country":"Canada","lat":49.05497,"lng":-123.86986},{"code":"YCG","name":"Castlegar/West Kootenay Regional Airport","city":"Castlegar","country":"Canada","lat":49.2964,"lng":-117.632},{"code":"YCH","name":"Miramichi Airport","city":"Chatham","country":"Canada","lat":47.0078,"lng":-65.4492},{"code":"YCL","name":"Charlo Airport","city":"Charlo","country":"Canada","lat":47.9908,"lng":-66.3303},{"code":"YCO","name":"Kugluktuk Airport","city":"Coppermine","country":"Canada","lat":67.8167,"lng":-115.144},{"code":"YCT","name":"Coronation Airport","city":"Coronation","country":"Canada","lat":52.075,"lng":-111.445},{"code":"YCW","name":"Chilliwack Airport","city":"Chilliwack","country":"Canada","lat":49.1528,"lng":-121.939},{"code":"YCY","name":"Clyde River Airport","city":"Clyde River","country":"Canada","lat":70.4861,"lng":-68.5167},{"code":"YZS","name":"Coral Harbour Airport","city":"Coral Harbour","country":"Canada","lat":64.1933,"lng":-83.3594},{"code":"YDA","name":"Dawson City Airport","city":"Dawson","country":"Canada","lat":64.0431,"lng":-139.12801},{"code":"YDB","name":"Burwash Airport","city":"Burwash","country":"Canada","lat":61.3711,"lng":-139.041},{"code":"YDF","name":"Deer Lake Airport","city":"Deer Lake","country":"Canada","lat":49.2108,"lng":-57.3914},{"code":"YDL","name":"Dease Lake Airport","city":"Dease Lake","country":"Canada","lat":58.4222,"lng":-130.032},{"code":"YDN","name":"Dauphin Barker Airport","city":"Dauphin","country":"Canada","lat":51.1008,"lng":-100.052},{"code":"YDQ","name":"Dawson Creek Airport","city":"Dawson Creek","country":"Canada","lat":55.7423,"lng":-120.183},{"code":"YEG","name":"Edmonton International Airport","city":"Edmonton","country":"Canada","lat":53.3097,"lng":-113.58},{"code":"YEK","name":"Arviat Airport","city":"Eskimo Point","country":"Canada","lat":61.0942,"lng":-94.0708},{"code":"YEN","name":"Estevan Airport","city":"Estevan","country":"Canada","lat":49.2103,"lng":-102.966},{"code":"YET","name":"Edson Airport","city":"Edson","country":"Canada","lat":53.5789,"lng":-116.465},{"code":"YEU","name":"Eureka Airport","city":"Eureka","country":"Canada","lat":79.9947,"lng":-85.8142},{"code":"YEV","name":"Inuvik Mike Zubko Airport","city":"Inuvik","country":"Canada","lat":68.3042,"lng":-133.483},{"code":"YFB","name":"Iqaluit Airport","city":"Iqaluit","country":"Canada","lat":63.7564,"lng":-68.5558},{"code":"YFC","name":"Fredericton Airport","city":"Fredericton","country":"Canada","lat":45.8689,"lng":-66.5372},{"code":"YFE","name":"Forestville Airport","city":"Forestville","country":"Canada","lat":48.7461,"lng":-69.0972},{"code":"YFO","name":"Flin Flon Airport","city":"Flin Flon","country":"Canada","lat":54.6781,"lng":-101.682},{"code":"YFR","name":"Fort Resolution Airport","city":"Fort Resolution","country":"Canada","lat":61.1808,"lng":-113.69},{"code":"YFS","name":"Fort Simpson Airport","city":"Fort Simpson","country":"Canada","lat":61.7602,"lng":-121.237},{"code":"YGK","name":"Kingston Norman Rogers Airport","city":"Kingston","country":"Canada","lat":44.2253,"lng":-76.5969},{"code":"YGL","name":"La Grande Rivière Airport","city":"La Grande Riviere","country":"Canada","lat":53.6253,"lng":-77.7042},{"code":"YGP","name":"Gaspé (Michel-Pouliot) Airport","city":"Gaspe","country":"Canada","lat":48.7753,"lng":-64.4786},{"code":"YGQ","name":"Geraldton Greenstone Regional Airport","city":"Geraldton","country":"Canada","lat":49.7783,"lng":-86.9394},{"code":"YGR","name":"Îles-de-la-Madeleine Airport","city":"Iles De La Madeleine","country":"Canada","lat":47.4247,"lng":-61.7781},{"code":"YHB","name":"Hudson Bay Airport","city":"Hudson Bay","country":"Canada","lat":52.8167,"lng":-102.311},{"code":"YHD","name":"Dryden Regional Airport","city":"Dryden","country":"Canada","lat":49.8317,"lng":-92.7442},{"code":"YHI","name":"Ulukhaktok Holman Airport","city":"Holman Island","country":"Canada","lat":70.7628,"lng":-117.806},{"code":"YHK","name":"Gjoa Haven Airport","city":"Gjoa Haven","country":"Canada","lat":68.6356,"lng":-95.8497},{"code":"YHM","name":"John C. Munro Hamilton International Airport","city":"Hamilton","country":"Canada","lat":43.1736,"lng":-79.935},{"code":"YHU","name":"Montréal / Saint-Hubert Airport","city":"Montreal","country":"Canada","lat":45.5175,"lng":-73.4169},{"code":"YHY","name":"Hay River / Merlyn Carter Airport","city":"Hay River","country":"Canada","lat":60.8397,"lng":-115.783},{"code":"YHZ","name":"Halifax / Stanfield International Airport","city":"Halifax","country":"Canada","lat":44.8808,"lng":-63.5086},{"code":"YIB","name":"Atikokan Municipal Airport","city":"Atikokan","country":"Canada","lat":48.7739,"lng":-91.6386},{"code":"YIO","name":"Pond Inlet Airport","city":"Pond Inlet","country":"Canada","lat":72.6833,"lng":-77.9667},{"code":"YJN","name":"St Jean Airport","city":"St. Jean","country":"Canada","lat":45.2944,"lng":-73.2811},{"code":"YJT","name":"Stephenville Airport","city":"Stephenville","country":"Canada","lat":48.5442,"lng":-58.55},{"code":"YKA","name":"Kamloops Airport","city":"Kamloops","country":"Canada","lat":50.7022,"lng":-120.444},{"code":"YKF","name":"Waterloo Airport","city":"Waterloo","country":"Canada","lat":43.4608,"lng":-80.3786},{"code":"YKL","name":"Schefferville Airport","city":"Schefferville","country":"Canada","lat":54.8053,"lng":-66.8053},{"code":"YKY","name":"Kindersley Airport","city":"Kindersley","country":"Canada","lat":51.5175,"lng":-109.181},{"code":"YKZ","name":"Buttonville Municipal Airport","city":"Toronto","country":"Canada","lat":43.8622,"lng":-79.37},{"code":"YLD","name":"Chapleau Airport","city":"Chapleau","country":"Canada","lat":47.82,"lng":-83.3467},{"code":"YLJ","name":"Meadow Lake Airport","city":"Meadow Lake","country":"Canada","lat":54.1253,"lng":-108.523},{"code":"YLL","name":"Lloydminster Airport","city":"Lloydminster","country":"Canada","lat":53.3092,"lng":-110.073},{"code":"YLT","name":"Alert Airport","city":"Alert","country":"Canada","lat":82.5178,"lng":-62.2806},{"code":"YLW","name":"Kelowna International Airport","city":"Kelowna","country":"Canada","lat":49.9561,"lng":-119.378},{"code":"YMA","name":"Mayo Airport","city":"Mayo","country":"Canada","lat":63.6164,"lng":-135.868},{"code":"YMJ","name":"Moose Jaw Air Vice Marshal C. M. McEwen Airport","city":"Moose Jaw","country":"Canada","lat":50.3303,"lng":-105.559},{"code":"YMM","name":"Fort McMurray Airport","city":"Fort Mcmurray","country":"Canada","lat":56.6533,"lng":-111.222},{"code":"YMO","name":"Moosonee Airport","city":"Moosonee","country":"Canada","lat":51.2911,"lng":-80.6078},{"code":"YMW","name":"Maniwaki Airport","city":"Maniwaki","country":"Canada","lat":46.2728,"lng":-75.9906},{"code":"YMX","name":"Montreal International (Mirabel) Airport","city":"Montreal","country":"Canada","lat":45.6795,"lng":-74.0387},{"code":"YNA","name":"Natashquan Airport","city":"Natashquan","country":"Canada","lat":50.19,"lng":-61.7892},{"code":"YND","name":"Ottawa / Gatineau Airport","city":"Gatineau","country":"Canada","lat":45.5217,"lng":-75.5636},{"code":"YNM","name":"Matagami Airport","city":"Matagami","country":"Canada","lat":49.7617,"lng":-77.8028},{"code":"YOC","name":"Old Crow Airport","city":"Old Crow","country":"Canada","lat":67.5706,"lng":-139.839},{"code":"YOD","name":"CFB Cold Lake","city":"Cold Lake","country":"Canada","lat":54.405,"lng":-110.279},{"code":"YOJ","name":"High Level Airport","city":"High Level","country":"Canada","lat":58.6214,"lng":-117.165},{"code":"YOW","name":"Ottawa Macdonald-Cartier International Airport","city":"Ottawa","country":"Canada","lat":45.3225,"lng":-75.6692},{"code":"YPA","name":"Prince Albert Glass Field","city":"Prince Albert","country":"Canada","lat":53.2142,"lng":-105.673},{"code":"YPE","name":"Peace River Airport","city":"Peace River","country":"Canada","lat":56.2269,"lng":-117.447},{"code":"YPG","name":"Southport Airport","city":"Portage-la-prairie","country":"Canada","lat":49.9031,"lng":-98.27382},{"code":"YPL","name":"Pickle Lake Airport","city":"Pickle Lake","country":"Canada","lat":51.4464,"lng":-90.2142},{"code":"YPN","name":"Port Menier Airport","city":"Port Menier","country":"Canada","lat":49.8364,"lng":-64.2886},{"code":"YPQ","name":"Peterborough Airport","city":"Peterborough","country":"Canada","lat":44.23,"lng":-78.3633},{"code":"YPR","name":"Prince Rupert Airport","city":"Prince Pupert","country":"Canada","lat":54.2861,"lng":-130.44501},{"code":"YPY","name":"Fort Chipewyan Airport","city":"Fort Chipewyan","country":"Canada","lat":58.7672,"lng":-111.117},{"code":"YQA","name":"Muskoka Airport","city":"Muskoka","country":"Canada","lat":44.9747,"lng":-79.3033},{"code":"YQB","name":"Quebec Jean Lesage International Airport","city":"Quebec","country":"Canada","lat":46.7911,"lng":-71.3933},{"code":"YQF","name":"Red Deer Regional Airport","city":"Red Deer Industrial","country":"Canada","lat":52.1822,"lng":-113.894},{"code":"YQG","name":"Windsor Airport","city":"Windsor","country":"Canada","lat":42.2756,"lng":-82.9556},{"code":"YQH","name":"Watson Lake Airport","city":"Watson Lake","country":"Canada","lat":60.1164,"lng":-128.82201},{"code":"YQK","name":"Kenora Airport","city":"Kenora","country":"Canada","lat":49.7883,"lng":-94.3631},{"code":"YQL","name":"Lethbridge County Airport","city":"Lethbridge","country":"Canada","lat":49.6303,"lng":-112.8},{"code":"YQM","name":"Greater Moncton International Airport","city":"Moncton","country":"Canada","lat":46.1122,"lng":-64.6786},{"code":"YQQ","name":"Comox Airport","city":"Comox","country":"Canada","lat":49.7108,"lng":-124.887},{"code":"YQR","name":"Regina International Airport","city":"Regina","country":"Canada","lat":50.4319,"lng":-104.666},{"code":"YQT","name":"Thunder Bay Airport","city":"Thunder Bay","country":"Canada","lat":48.3719,"lng":-89.3239},{"code":"YQU","name":"Grande Prairie Airport","city":"Grande Prairie","country":"Canada","lat":55.1797,"lng":-118.885},{"code":"YQV","name":"Yorkton Municipal Airport","city":"Yorkton","country":"Canada","lat":51.2647,"lng":-102.462},{"code":"YQW","name":"North Battleford Airport","city":"North Battleford","country":"Canada","lat":52.7692,"lng":-108.244},{"code":"YQX","name":"Gander International Airport","city":"Gander","country":"Canada","lat":48.9369,"lng":-54.5681},{"code":"YQY","name":"Sydney / J.A. Douglas McCurdy Airport","city":"Sydney","country":"Canada","lat":46.1614,"lng":-60.0478},{"code":"YQZ","name":"Quesnel Airport","city":"Quesnel","country":"Canada","lat":53.0261,"lng":-122.51},{"code":"YRB","name":"Resolute Bay Airport","city":"Resolute","country":"Canada","lat":74.7169,"lng":-94.9694},{"code":"YRI","name":"Rivière-du-Loup Airport","city":"Riviere Du Loup","country":"Canada","lat":47.7644,"lng":-69.5847},{"code":"YRJ","name":"Roberval Airport","city":"Roberval","country":"Canada","lat":48.52,"lng":-72.2656},{"code":"YRM","name":"Rocky Mountain House Airport","city":"Rocky Mountain House","country":"Canada","lat":52.4297,"lng":-114.904},{"code":"YRT","name":"Rankin Inlet Airport","city":"Rankin Inlet","country":"Canada","lat":62.8114,"lng":-92.1158},{"code":"YSB","name":"Sudbury Airport","city":"Sudbury","country":"Canada","lat":46.625,"lng":-80.7989},{"code":"YSC","name":"Sherbrooke Airport","city":"Sherbrooke","country":"Canada","lat":45.4386,"lng":-71.6914},{"code":"YSJ","name":"Saint John Airport","city":"St. John","country":"Canada","lat":45.3161,"lng":-65.8903},{"code":"YSM","name":"Fort Smith Airport","city":"Fort Smith","country":"Canada","lat":60.0203,"lng":-111.962},{"code":"YSR","name":"Nanisivik Airport","city":"Nanisivik","country":"Canada","lat":72.9822,"lng":-84.6136},{"code":"YSU","name":"Summerside Airport","city":"Summerside","country":"Canada","lat":46.4406,"lng":-63.8336},{"code":"YSY","name":"Sachs Harbour (David Nasogaluak Jr. Saaryuaq) Airport","city":"Sachs Harbour","country":"Canada","lat":71.9939,"lng":-125.243},{"code":"YTE","name":"Cape Dorset Airport","city":"Cape Dorset","country":"Canada","lat":64.23,"lng":-76.5267},{"code":"YTH","name":"Thompson Airport","city":"Thompson","country":"Canada","lat":55.8011,"lng":-97.8642},{"code":"YTR","name":"CFB Trenton","city":"Trenton","country":"Canada","lat":44.1189,"lng":-77.5281},{"code":"YTS","name":"Timmins/Victor M. Power","city":"Timmins","country":"Canada","lat":48.5697,"lng":-81.3767},{"code":"YTZ","name":"Billy Bishop Toronto City Centre Airport","city":"Toronto","country":"Canada","lat":43.6275,"lng":-79.3962},{"code":"YUB","name":"Tuktoyaktuk Airport","city":"Tuktoyaktuk","country":"Canada","lat":69.4333,"lng":-133.026},{"code":"YUL","name":"Montreal / Pierre Elliott Trudeau International Airport","city":"Montreal","country":"Canada","lat":45.4706,"lng":-73.7408},{"code":"YUT","name":"Repulse Bay Airport","city":"Repulse Bay","country":"Canada","lat":66.5214,"lng":-86.2247},{"code":"YUX","name":"Hall Beach Airport","city":"Hall Beach","country":"Canada","lat":68.7761,"lng":-81.2425},{"code":"YUY","name":"Rouyn Noranda Airport","city":"Rouyn","country":"Canada","lat":48.2061,"lng":-78.8356},{"code":"YVC","name":"La Ronge Airport","city":"La Ronge","country":"Canada","lat":55.1514,"lng":-105.262},{"code":"YVG","name":"Vermilion Airport","city":"Vermillion","country":"Canada","lat":53.3558,"lng":-110.824},{"code":"YVM","name":"Qikiqtarjuaq Airport","city":"Broughton Island","country":"Canada","lat":67.5458,"lng":-64.0314},{"code":"YVO","name":"Val-d'Or Airport","city":"Val D'or","country":"Canada","lat":48.0533,"lng":-77.7828},{"code":"YVP","name":"Kuujjuaq Airport","city":"Quujjuaq","country":"Canada","lat":58.0961,"lng":-68.4269},{"code":"YVQ","name":"Norman Wells Airport","city":"Norman Wells","country":"Canada","lat":65.2816,"lng":-126.798},{"code":"YVR","name":"Vancouver International Airport","city":"Vancouver","country":"Canada","lat":49.1939,"lng":-123.184},{"code":"YVT","name":"Buffalo Narrows Airport","city":"Buffalo Narrows","country":"Canada","lat":55.8419,"lng":-108.418},{"code":"YVV","name":"Wiarton Airport","city":"Wiarton","country":"Canada","lat":44.7458,"lng":-81.1072},{"code":"YWA","name":"Petawawa Airport","city":"Petawawa","country":"Canada","lat":45.9522,"lng":-77.3192},{"code":"YWG","name":"Winnipeg / James Armstrong Richardson International Airport","city":"Winnipeg","country":"Canada","lat":49.91,"lng":-97.2399},{"code":"YWK","name":"Wabush Airport","city":"Wabush","country":"Canada","lat":52.9219,"lng":-66.8644},{"code":"YWL","name":"Williams Lake Airport","city":"Williams Lake","country":"Canada","lat":52.1831,"lng":-122.054},{"code":"YWY","name":"Wrigley Airport","city":"Wrigley","country":"Canada","lat":63.2094,"lng":-123.437},{"code":"YXC","name":"Cranbrook/Canadian Rockies International Airport","city":"Cranbrook","country":"Canada","lat":49.6108,"lng":-115.782},{"code":"YXD","name":"Edmonton City Centre (Blatchford Field) Airport","city":"Edmonton","country":"Canada","lat":53.5725,"lng":-113.521},{"code":"YXE","name":"Saskatoon John G. Diefenbaker International Airport","city":"Saskatoon","country":"Canada","lat":52.1708,"lng":-106.7},{"code":"YXH","name":"Medicine Hat Airport","city":"Medicine Hat","country":"Canada","lat":50.0189,"lng":-110.721},{"code":"YXJ","name":"Fort St John Airport","city":"Fort Saint John","country":"Canada","lat":56.2381,"lng":-120.74},{"code":"YXL","name":"Sioux Lookout Airport","city":"Sioux Lookout","country":"Canada","lat":50.1139,"lng":-91.9053},{"code":"YXP","name":"Pangnirtung Airport","city":"Pangnirtung","country":"Canada","lat":66.145,"lng":-65.7136},{"code":"YXR","name":"Earlton (Timiskaming Regional) Airport","city":"Earlton","country":"Canada","lat":47.6974,"lng":-79.84735},{"code":"YXS","name":"Prince George Airport","city":"Prince George","country":"Canada","lat":53.8894,"lng":-122.679},{"code":"YXT","name":"Northwest Regional Airport Terrace-Kitimat","city":"Terrace","country":"Canada","lat":54.4685,"lng":-128.57601},{"code":"YXU","name":"London Airport","city":"London","country":"Canada","lat":43.0356,"lng":-81.1539},{"code":"YXX","name":"Abbotsford Airport","city":"Abbotsford","country":"Canada","lat":49.0253,"lng":-122.361},{"code":"YXY","name":"Whitehorse / Erik Nielsen International Airport","city":"Whitehorse","country":"Canada","lat":60.7096,"lng":-135.067},{"code":"YYB","name":"North Bay Jack Garland Airport","city":"North Bay","country":"Canada","lat":46.3636,"lng":-79.4228},{"code":"YYC","name":"Calgary International Airport","city":"Calgary","country":"Canada","lat":51.1139,"lng":-114.02},{"code":"YYD","name":"Smithers Airport","city":"Smithers","country":"Canada","lat":54.8247,"lng":-127.183},{"code":"YYE","name":"Fort Nelson Airport","city":"Fort Nelson","country":"Canada","lat":58.8364,"lng":-122.597},{"code":"YYF","name":"Penticton Airport","city":"Penticton","country":"Canada","lat":49.4631,"lng":-119.602},{"code":"YYG","name":"Charlottetown Airport","city":"Charlottetown","country":"Canada","lat":46.29,"lng":-63.1211},{"code":"YYH","name":"Taloyoak Airport","city":"Spence Bay","country":"Canada","lat":69.5467,"lng":-93.5767},{"code":"YYJ","name":"Victoria International Airport","city":"Victoria","country":"Canada","lat":48.6469,"lng":-123.426},{"code":"YYL","name":"Lynn Lake Airport","city":"Lynn Lake","country":"Canada","lat":56.8639,"lng":-101.076},{"code":"YYN","name":"Swift Current Airport","city":"Swift Current","country":"Canada","lat":50.2919,"lng":-107.691},{"code":"YYQ","name":"Churchill Airport","city":"Churchill","country":"Canada","lat":58.7392,"lng":-94.065},{"code":"YYR","name":"Goose Bay Airport","city":"Goose Bay","country":"Canada","lat":53.3192,"lng":-60.4258},{"code":"YYT","name":"St. John's International Airport","city":"St. John's","country":"Canada","lat":47.6186,"lng":-52.7519},{"code":"YYU","name":"Kapuskasing Airport","city":"Kapuskasing","country":"Canada","lat":49.4139,"lng":-82.4675},{"code":"YYW","name":"Armstrong Airport","city":"Armstrong","country":"Canada","lat":50.2903,"lng":-88.9097},{"code":"YYY","name":"Mont Joli Airport","city":"Mont Joli","country":"Canada","lat":48.6086,"lng":-68.2081},{"code":"YYZ","name":"Lester B. Pearson International Airport","city":"Toronto","country":"Canada","lat":43.6772,"lng":-79.6306},{"code":"YZD","name":"Downsview Airport","city":"Toronto","country":"Canada","lat":43.7425,"lng":-79.4656},{"code":"YZE","name":"Gore Bay Manitoulin Airport","city":"Gore Bay","country":"Canada","lat":45.8853,"lng":-82.5678},{"code":"YZF","name":"Yellowknife Airport","city":"Yellowknife","country":"Canada","lat":62.4628,"lng":-114.44},{"code":"YZH","name":"Slave Lake Airport","city":"Slave Lake","country":"Canada","lat":55.2931,"lng":-114.777},{"code":"YZP","name":"Sandspit Airport","city":"Sandspit","country":"Canada","lat":53.2543,"lng":-131.814},{"code":"YZR","name":"Chris Hadfield Airport","city":"Sarnia","country":"Canada","lat":42.9994,"lng":-82.3089},{"code":"YZT","name":"Port Hardy Airport","city":"Port Hardy","country":"Canada","lat":50.6806,"lng":-127.367},{"code":"YZU","name":"Whitecourt Airport","city":"Whitecourt","country":"Canada","lat":54.1439,"lng":-115.787},{"code":"YZV","name":"Sept-Îles Airport","city":"Sept-iles","country":"Canada","lat":50.2233,"lng":-66.2656},{"code":"YZW","name":"Teslin Airport","city":"Teslin","country":"Canada","lat":60.1728,"lng":-132.743},{"code":"YZX","name":"CFB Greenwood","city":"Greenwood","country":"Canada","lat":44.9844,"lng":-64.9169},{"code":"ZFA","name":"Faro Airport","city":"Faro","country":"Canada","lat":62.2075,"lng":-133.37601},{"code":"ZFM","name":"Fort Mcpherson Airport","city":"Fort Mcpherson","country":"Canada","lat":67.4075,"lng":-134.86099},{"code":"QLD","name":"Blida Airport","city":"Blida","country":"Algeria","lat":36.5036,"lng":2.81417},{"code":"BUJ","name":"Bou Saada Airport","city":"Bou Saada","country":"Algeria","lat":35.3325,"lng":4.20639},{"code":"BJA","name":"Soummam Airport","city":"Bejaja","country":"Algeria","lat":36.712,"lng":5.06992},{"code":"ALG","name":"Houari Boumediene Airport","city":"Algier","country":"Algeria","lat":36.691,"lng":3.21541},{"code":"DJG","name":"Djanet Inedbirene Airport","city":"Djanet","country":"Algeria","lat":24.2928,"lng":9.45244},{"code":"VVZ","name":"Illizi Takhamalt Airport","city":"Illizi","country":"Algeria","lat":26.7235,"lng":8.62265},{"code":"TMR","name":"Aguenar – Hadj Bey Akhamok Airport","city":"Tamanrasset","country":"Algeria","lat":22.8115,"lng":5.45108},{"code":"GJL","name":"Jijel Ferhat Abbas Airport","city":"Jijel","country":"Algeria","lat":36.7951,"lng":5.87361},{"code":"MZW","name":"Mecheria Airport","city":"Mecheria","country":"Algeria","lat":33.5359,"lng":-0.24235},{"code":"AAE","name":"Rabah Bitat Airport","city":"Annaba","country":"Algeria","lat":36.8222,"lng":7.80917},{"code":"CZL","name":"Mohamed Boudiaf International Airport","city":"Constantine","country":"Algeria","lat":36.276,"lng":6.62039},{"code":"TEE","name":"Cheikh Larbi Tébessi Airport","city":"Tebessa","country":"Algeria","lat":35.4316,"lng":8.12072},{"code":"HRM","name":"Hassi R'Mel Airport","city":"Tilrempt","country":"Algeria","lat":32.9304,"lng":3.31154},{"code":"TID","name":"Bou Chekif Airport","city":"Tiaret","country":"Algeria","lat":35.3411,"lng":1.46315},{"code":"TIN","name":"Tindouf Airport","city":"Tindouf","country":"Algeria","lat":27.7004,"lng":-8.1671},{"code":"CFK","name":"Ech Cheliff Airport","city":"Ech-cheliff","country":"Algeria","lat":36.2127,"lng":1.33177},{"code":"TAF","name":"Tafaraoui Airport","city":"Oran","country":"Algeria","lat":35.5424,"lng":-0.53228},{"code":"TLM","name":"Zenata – Messali El Hadj Airport","city":"Tlemcen","country":"Algeria","lat":35.0167,"lng":-1.45},{"code":"ORN","name":"Es Senia Airport","city":"Oran","country":"Algeria","lat":35.6239,"lng":-0.62118},{"code":"BFW","name":"Sidi Bel Abbes Airport","city":"Sidi Bel Abbes","country":"Algeria","lat":35.1718,"lng":-0.59328},{"code":"MUW","name":"Ghriss Airport","city":"Ghriss","country":"Algeria","lat":35.2077,"lng":0.14714},{"code":"AZR","name":"Touat Cheikh Sidi Mohamed Belkebir Airport","city":"Adrar","country":"Algeria","lat":27.8376,"lng":-0.18641},{"code":"BSK","name":"Biskra Airport","city":"Biskra","country":"Algeria","lat":34.7933,"lng":5.73823},{"code":"ELG","name":"El Golea Airport","city":"El Golea","country":"Algeria","lat":30.5713,"lng":2.85959},{"code":"GHA","name":"Noumérat - Moufdi Zakaria Airport","city":"Ghardaia","country":"Algeria","lat":32.3841,"lng":3.79411},{"code":"HME","name":"Oued Irara Airport","city":"Hassi Messaoud","country":"Algeria","lat":31.673,"lng":6.14044},{"code":"INZ","name":"In Salah Airport","city":"In Salah","country":"Algeria","lat":27.251,"lng":2.51202},{"code":"TGR","name":"Touggourt Sidi Madhi Airport","city":"Touggourt","country":"Algeria","lat":33.0678,"lng":6.08867},{"code":"LOO","name":"Laghouat Airport","city":"Laghouat","country":"Algeria","lat":33.7644,"lng":2.92834},{"code":"TMX","name":"Timimoun Airport","city":"Timimoun","country":"Algeria","lat":29.2371,"lng":0.27603},{"code":"OGX","name":"Ain el Beida Airport","city":"Ouargla","country":"Algeria","lat":31.9172,"lng":5.41278},{"code":"IAM","name":"In Aménas Airport","city":"Zarzaitine","country":"Algeria","lat":28.0515,"lng":9.64291},{"code":"COO","name":"Cadjehoun Airport","city":"Cotonou","country":"Benin","lat":6.35723,"lng":2.38435},{"code":"OUA","name":"Ouagadougou Airport","city":"Ouagadougou","country":"Burkina Faso","lat":12.3532,"lng":-1.51242},{"code":"BOY","name":"Bobo Dioulasso Airport","city":"Bobo-dioulasso","country":"Burkina Faso","lat":11.1601,"lng":-4.33097},{"code":"ACC","name":"Kotoka International Airport","city":"Accra","country":"Ghana","lat":5.60519,"lng":-0.16679},{"code":"TML","name":"Tamale Airport","city":"Tamale","country":"Ghana","lat":9.55719,"lng":-0.86321},{"code":"NYI","name":"Sunyani Airport","city":"Sunyani","country":"Ghana","lat":7.36183,"lng":-2.32876},{"code":"TKD","name":"Takoradi Airport","city":"Takoradi","country":"Ghana","lat":4.89606,"lng":-1.77476},{"code":"ABJ","name":"Port Bouet Airport","city":"Abidjan","country":"Cote d'Ivoire","lat":5.26139,"lng":-3.92629},{"code":"BYK","name":"Bouaké Airport","city":"Bouake","country":"Cote d'Ivoire","lat":7.7388,"lng":-5.07367},{"code":"DJO","name":"Daloa Airport","city":"Daloa","country":"Cote d'Ivoire","lat":6.79281,"lng":-6.47319},{"code":"HGO","name":"Korhogo Airport","city":"Korhogo","country":"Cote d'Ivoire","lat":9.38718,"lng":-5.55666},{"code":"MJC","name":"Man Airport","city":"Man","country":"Cote d'Ivoire","lat":7.27207,"lng":-7.58736},{"code":"SPY","name":"San Pedro Airport","city":"San Pedro","country":"Cote d'Ivoire","lat":4.74672,"lng":-6.66082},{"code":"ASK","name":"Yamoussoukro Airport","city":"Yamoussoukro","country":"Cote d'Ivoire","lat":6.90317,"lng":-5.36558},{"code":"ABV","name":"Nnamdi Azikiwe International Airport","city":"Abuja","country":"Nigeria","lat":9.00679,"lng":7.26317},{"code":"AKR","name":"Akure Airport","city":"Akure","country":"Nigeria","lat":7.24674,"lng":5.30101},{"code":"BNI","name":"Benin Airport","city":"Benin","country":"Nigeria","lat":6.31698,"lng":5.5995},{"code":"CBQ","name":"Margaret Ekpo International Airport","city":"Calabar","country":"Nigeria","lat":4.97602,"lng":8.3472},{"code":"ENU","name":"Akanu Ibiam International Airport","city":"Enugu","country":"Nigeria","lat":6.47427,"lng":7.56196},{"code":"IBA","name":"Ibadan Airport","city":"Ibadan","country":"Nigeria","lat":7.36246,"lng":3.97833},{"code":"ILR","name":"Ilorin International Airport","city":"Ilorin","country":"Nigeria","lat":8.44021,"lng":4.49392},{"code":"JOS","name":"Yakubu Gowon Airport","city":"Jos","country":"Nigeria","lat":9.63983,"lng":8.86905},{"code":"KAD","name":"Kaduna Airport","city":"Kaduna","country":"Nigeria","lat":10.696,"lng":7.32011},{"code":"KAN","name":"Mallam Aminu International Airport","city":"Kano","country":"Nigeria","lat":12.0476,"lng":8.52462},{"code":"MIU","name":"Maiduguri International Airport","city":"Maiduguri","country":"Nigeria","lat":11.8553,"lng":13.0809},{"code":"MDI","name":"Makurdi Airport","city":"Makurdi","country":"Nigeria","lat":7.70388,"lng":8.61394},{"code":"LOS","name":"Murtala Muhammed International Airport","city":"Lagos","country":"Nigeria","lat":6.57737,"lng":3.32116},{"code":"MXJ","name":"Minna Airport","city":"Minna","country":"Nigeria","lat":9.65217,"lng":6.46226},{"code":"PHC","name":"Port Harcourt International Airport","city":"Port Hartcourt","country":"Nigeria","lat":5.01549,"lng":6.94959},{"code":"SKO","name":"Sadiq Abubakar III International Airport","city":"Sokoto","country":"Nigeria","lat":12.9163,"lng":5.20719},{"code":"YOL","name":"Yola Airport","city":"Yola","country":"Nigeria","lat":9.25755,"lng":12.4304},{"code":"ZAR","name":"Zaria Airport","city":"Zaria","country":"Nigeria","lat":11.1302,"lng":7.68581},{"code":"MFQ","name":"Maradi Airport","city":"Maradi","country":"Niger","lat":13.5025,"lng":7.12675},{"code":"NIM","name":"Diori Hamani International Airport","city":"Niamey","country":"Niger","lat":13.4815,"lng":2.18361},{"code":"THZ","name":"Tahoua Airport","city":"Tahoua","country":"Niger","lat":14.8757,"lng":5.26536},{"code":"AJY","name":"Mano Dayak International Airport","city":"Agadez","country":"Niger","lat":16.966,"lng":8.00011},{"code":"ZND","name":"Zinder Airport","city":"Zinder","country":"Niger","lat":13.779,"lng":8.98376},{"code":"MIR","name":"Monastir Habib Bourguiba International Airport","city":"Monastir","country":"Tunisia","lat":35.7581,"lng":10.7547},{"code":"TUN","name":"Tunis Carthage International Airport","city":"Tunis","country":"Tunisia","lat":36.851,"lng":10.2272},{"code":"GAF","name":"Gafsa Ksar International Airport","city":"Gafsa","country":"Tunisia","lat":34.422,"lng":8.8225},{"code":"GAE","name":"Gabès Matmata International Airport","city":"Gabes","country":"Tunisia","lat":33.8769,"lng":10.1033},{"code":"DJE","name":"Djerba Zarzis International Airport","city":"Djerba","country":"Tunisia","lat":33.875,"lng":10.7755},{"code":"EBM","name":"El Borma Airport","city":"El Borma","country":"Tunisia","lat":31.7043,"lng":9.25462},{"code":"SFA","name":"Sfax Thyna International Airport","city":"Sfax","country":"Tunisia","lat":34.718,"lng":10.691},{"code":"TOE","name":"Tozeur Nefta International Airport","city":"Tozeur","country":"Tunisia","lat":33.9397,"lng":8.11056},{"code":"LRL","name":"Niamtougou International Airport","city":"Niatougou","country":"Togo","lat":9.76733,"lng":1.09125},{"code":"LFW","name":"Lomé-Tokoin Airport","city":"Lome","country":"Togo","lat":6.16561,"lng":1.25451},{"code":"ANR","name":"Antwerp International Airport (Deurne)","city":"Antwerp","country":"Belgium","lat":51.1894,"lng":4.46028},{"code":"BRU","name":"Brussels Airport","city":"Brussels","country":"Belgium","lat":50.9014,"lng":4.48444},{"code":"CRL","name":"Brussels South Charleroi Airport","city":"Charleroi","country":"Belgium","lat":50.4592,"lng":4.45382},{"code":"KJK","name":"Wevelgem Airport","city":"Kortrijk-vevelgem","country":"Belgium","lat":50.8172,"lng":3.20472},{"code":"LGG","name":"Liège Airport","city":"Liege","country":"Belgium","lat":50.6374,"lng":5.44322},{"code":"OST","name":"Ostend-Bruges International Airport","city":"Ostend","country":"Belgium","lat":51.1989,"lng":2.86222},{"code":"OBL","name":"Zoersel (Oostmalle) Airfield","city":"Zoersel","country":"Belgium","lat":51.2647,"lng":4.75333},{"code":"AOC","name":"Altenburg-Nobitz Airport","city":"Altenburg","country":"Germany","lat":50.98195,"lng":12.50639},{"code":"IES","name":"Riesa-Göhlis Airport","city":"Riesa","country":"Germany","lat":51.29361,"lng":13.35611},{"code":"REB","name":"Rechlin-Lärz Airport","city":"Rechlin-laerz","country":"Germany","lat":53.30639,"lng":12.75222},{"code":"QXH","name":"Schönhagen Airport","city":"Schoenhagen","country":"Germany","lat":52.20361,"lng":13.15639},{"code":"BBH","name":"Barth Airport","city":"Barth","country":"Germany","lat":54.33825,"lng":12.71052},{"code":"ZMG","name":"Magdeburg \"City\" Airport","city":"Magdeburg","country":"Germany","lat":52.07361,"lng":11.62639},{"code":"CBU","name":"Cottbus-Drewitz Airport","city":"Cottbus","country":"Germany","lat":51.88944,"lng":14.53194},{"code":"SXF","name":"Berlin-Schönefeld Airport","city":"Berlin","country":"Germany","lat":52.38,"lng":13.5225},{"code":"DRS","name":"Dresden Airport","city":"Dresden","country":"Germany","lat":51.1328,"lng":13.7672},{"code":"ERF","name":"Erfurt Airport","city":"Erfurt","country":"Germany","lat":50.9798,"lng":10.9581},{"code":"FRA","name":"Frankfurt am Main Airport","city":"Frankfurt","country":"Germany","lat":50.03333,"lng":8.57056},{"code":"FMO","name":"Münster Osnabrück Airport","city":"Munster","country":"Germany","lat":52.1346,"lng":7.68483},{"code":"HAM","name":"Hamburg Airport","city":"Hamburg","country":"Germany","lat":53.6304,"lng":9.98823},{"code":"THF","name":"Berlin-Tempelhof International Airport","city":"Berlin","country":"Germany","lat":52.473,"lng":13.4039},{"code":"CGN","name":"Cologne Bonn Airport","city":"Cologne","country":"Germany","lat":50.8659,"lng":7.14274},{"code":"DUS","name":"Düsseldorf Airport","city":"Duesseldorf","country":"Germany","lat":51.2895,"lng":6.76678},{"code":"MUC","name":"Munich Airport","city":"Munich","country":"Germany","lat":48.3538,"lng":11.7861},{"code":"NUE","name":"Nuremberg Airport","city":"Nuernberg","country":"Germany","lat":49.4987,"lng":11.07806},{"code":"LEJ","name":"Leipzig/Halle Airport","city":"Leipzig","country":"Germany","lat":51.42389,"lng":12.23639},{"code":"SCN","name":"Saarbrücken Airport","city":"Saarbruecken","country":"Germany","lat":49.2146,"lng":7.10951},{"code":"STR","name":"Stuttgart Airport","city":"Stuttgart","country":"Germany","lat":48.6899,"lng":9.22196},{"code":"TXL","name":"Berlin-Tegel Airport","city":"Berlin","country":"Germany","lat":52.5597,"lng":13.2877},{"code":"HAJ","name":"Hannover Airport","city":"Hannover","country":"Germany","lat":52.4611,"lng":9.68508},{"code":"BRE","name":"Bremen Airport","city":"Bremen","country":"Germany","lat":53.0475,"lng":8.78667},{"code":"QEF","name":"Frankfurt-Egelsbach Airport","city":"Egelsbach","country":"Germany","lat":49.96,"lng":8.64583},{"code":"HHN","name":"Frankfurt-Hahn Airport","city":"Hahn","country":"Germany","lat":49.9487,"lng":7.26389},{"code":"MHG","name":"Mannheim-City Airport","city":"Mannheim","country":"Germany","lat":49.47306,"lng":8.51417},{"code":"EIB","name":"Eisenach-Kindel Airport","city":"Eisenach","country":"Germany","lat":50.9916,"lng":10.47973},{"code":"SGE","name":"Siegerland Airport","city":"Siegerland","country":"Germany","lat":50.7077,"lng":8.08297},{"code":"XFW","name":"Hamburg-Finkenwerder Airport","city":"Hamburg","country":"Germany","lat":53.53528,"lng":9.83556},{"code":"KEL","name":"Kiel-Holtenau Airport","city":"Kiel","country":"Germany","lat":54.37944,"lng":10.14528},{"code":"LBC","name":"Lübeck Blankensee Airport","city":"Luebeck","country":"Germany","lat":53.8054,"lng":10.7192},{"code":"ESS","name":"Essen Mulheim Airport","city":"Essen","country":"Germany","lat":51.4023,"lng":6.93733},{"code":"BFE","name":"Bielefeld Airport","city":"Bielefeld","country":"Germany","lat":51.96472,"lng":8.54444},{"code":"MGL","name":"Mönchengladbach Airport","city":"Moenchengladbach","country":"Germany","lat":51.23028,"lng":6.50444},{"code":"PAD","name":"Paderborn Lippstadt Airport","city":"Paderborn","country":"Germany","lat":51.6141,"lng":8.61632},{"code":"DTM","name":"Dortmund Airport","city":"Dortmund","country":"Germany","lat":51.5183,"lng":7.61224},{"code":"AGB","name":"Augsburg Airport","city":"Augsburg","country":"Germany","lat":48.42528,"lng":10.93167},{"code":"OBF","name":"Oberpfaffenhofen Airport","city":"Oberpfaffenhofen","country":"Germany","lat":48.0814,"lng":11.2831},{"code":"RBM","name":"Straubing Airport","city":"Straubing","country":"Germany","lat":48.90083,"lng":12.51667},{"code":"FDH","name":"Friedrichshafen Airport","city":"Friedrichshafen","country":"Germany","lat":47.6713,"lng":9.51149},{"code":"SZW","name":"Schwerin Parchim Airport","city":"Parchim","country":"Germany","lat":53.427,"lng":11.7834},{"code":"BYU","name":"Bayreuth Airport","city":"Bayreuth","country":"Germany","lat":49.985,"lng":11.64},{"code":"URD","name":"Burg Feuerstein Airport","city":"Burg Feuerstein","country":"Germany","lat":49.79417,"lng":11.13361},{"code":"HOQ","name":"Hof-Plauen Airport","city":"Hof","country":"Germany","lat":50.28861,"lng":11.85639},{"code":"ZQW","name":"Zweibrücken Airport","city":"Zweibruecken","country":"Germany","lat":49.2094,"lng":7.40056},{"code":"ZQL","name":"Donaueschingen-Villingen Airport","city":"Donaueschingen","country":"Germany","lat":47.97333,"lng":8.52222},{"code":"BWE","name":"Braunschweig-Wolfsburg Airport","city":"Braunschweig","country":"Germany","lat":52.3192,"lng":10.5561},{"code":"KSF","name":"Kassel-Calden Airport","city":"Kassel","country":"Germany","lat":51.41727,"lng":9.38497},{"code":"BRV","name":"Bremerhaven Airport","city":"Bremerhaven","country":"Germany","lat":53.50694,"lng":8.57278},{"code":"EME","name":"Emden Airport","city":"Emden","country":"Germany","lat":53.39111,"lng":7.2275},{"code":"WVN","name":"Wilhelmshaven-Mariensiel Airport","city":"Wilhelmshaven","country":"Germany","lat":53.50222,"lng":8.05222},{"code":"BMK","name":"Borkum Airport","city":"Borkum","country":"Germany","lat":53.59639,"lng":6.70917},{"code":"NRD","name":"Norderney Airport","city":"Norderney","country":"Germany","lat":53.70694,"lng":7.23},{"code":"FLF","name":"Flensburg-Schäferhaus Airport","city":"Flensburg","country":"Germany","lat":54.77333,"lng":9.37889},{"code":"GWT","name":"Westerland Sylt Airport","city":"Westerland","country":"Germany","lat":54.9132,"lng":8.34047},{"code":"KDL","name":"Kärdla Airport","city":"Kardla","country":"Estonia","lat":58.9908,"lng":22.8307},{"code":"URE","name":"Kuressaare Airport","city":"Kuressaare","country":"Estonia","lat":58.2299,"lng":22.5095},{"code":"EPU","name":"Pärnu Airport","city":"Parnu","country":"Estonia","lat":58.419,"lng":24.4728},{"code":"TLL","name":"Lennart Meri Tallinn Airport","city":"Tallinn-ulemiste International","country":"Estonia","lat":59.4133,"lng":24.8328},{"code":"TAY","name":"Tartu Airport","city":"Tartu","country":"Estonia","lat":58.3075,"lng":26.6904},{"code":"ENF","name":"Enontekio Airport","city":"Enontekio","country":"Finland","lat":68.3626,"lng":23.4243},{"code":"KEV","name":"Halli Airport","city":"Halli","country":"Finland","lat":61.85604,"lng":24.78669},{"code":"HEM","name":"Helsinki Malmi Airport","city":"Helsinki","country":"Finland","lat":60.2546,"lng":25.0428},{"code":"HEL","name":"Helsinki Vantaa Airport","city":"Helsinki","country":"Finland","lat":60.3172,"lng":24.9633},{"code":"HYV","name":"Hyvinkää Airfield","city":"Hyvinkaa","country":"Finland","lat":60.6544,"lng":24.8811},{"code":"KTQ","name":"Kitee Airport","city":"Kitee","country":"Finland","lat":62.1661,"lng":30.0736},{"code":"IVL","name":"Ivalo Airport","city":"Ivalo","country":"Finland","lat":68.6073,"lng":27.4053},{"code":"JOE","name":"Joensuu Airport","city":"Joensuu","country":"Finland","lat":62.6629,"lng":29.6075},{"code":"JYV","name":"Jyvaskyla Airport","city":"Jyvaskyla","country":"Finland","lat":62.3995,"lng":25.6783},{"code":"KAU","name":"Kauhava Airport","city":"Kauhava","country":"Finland","lat":63.1271,"lng":23.0514},{"code":"KEM","name":"Kemi-Tornio Airport","city":"Kemi","country":"Finland","lat":65.7787,"lng":24.5821},{"code":"KAJ","name":"Kajaani Airport","city":"Kajaani","country":"Finland","lat":64.2855,"lng":27.6924},{"code":"KHJ","name":"Kauhajoki Airport","city":"Kauhajoki","country":"Finland","lat":62.4625,"lng":22.3931},{"code":"KOK","name":"Kokkola-Pietarsaari Airport","city":"Kruunupyy","country":"Finland","lat":63.7212,"lng":23.1431},{"code":"KAO","name":"Kuusamo Airport","city":"Kuusamo","country":"Finland","lat":65.9876,"lng":29.2394},{"code":"KTT","name":"Kittilä Airport","city":"Kittila","country":"Finland","lat":67.701,"lng":24.8468},{"code":"KUO","name":"Kuopio Airport","city":"Kuopio","country":"Finland","lat":63.0071,"lng":27.7978},{"code":"QLF","name":"Lahti Vesivehmaa Airport","city":"Vesivehmaa","country":"Finland","lat":61.1442,"lng":25.6935},{"code":"LPP","name":"Lappeenranta Airport","city":"Lappeenranta","country":"Finland","lat":61.0446,"lng":28.14474},{"code":"MHQ","name":"Mariehamn Airport","city":"Mariehamn","country":"Finland","lat":60.1222,"lng":19.8982},{"code":"MIK","name":"Mikkeli Airport","city":"Mikkeli","country":"Finland","lat":61.6866,"lng":27.2018},{"code":"OUL","name":"Oulu Airport","city":"Oulu","country":"Finland","lat":64.9301,"lng":25.3546},{"code":"POR","name":"Pori Airport","city":"Pori","country":"Finland","lat":61.4617,"lng":21.8},{"code":"RVN","name":"Rovaniemi Airport","city":"Rovaniemi","country":"Finland","lat":66.5648,"lng":25.8304},{"code":"SVL","name":"Savonlinna Airport","city":"Savonlinna","country":"Finland","lat":61.9431,"lng":28.9451},{"code":"SOT","name":"Sodankyla Airport","city":"Sodankyla","country":"Finland","lat":67.395,"lng":26.6191},{"code":"TMP","name":"Tampere-Pirkkala Airport","city":"Tampere","country":"Finland","lat":61.4141,"lng":23.6044},{"code":"TKU","name":"Turku Airport","city":"Turku","country":"Finland","lat":60.5141,"lng":22.2628},{"code":"UTI","name":"Utti Air Base","city":"Utti","country":"Finland","lat":60.8964,"lng":26.9384},{"code":"VAA","name":"Vaasa Airport","city":"Vaasa","country":"Finland","lat":63.0507,"lng":21.7622},{"code":"VRK","name":"Varkaus Airport","city":"Varkaus","country":"Finland","lat":62.1711,"lng":27.8686},{"code":"YLI","name":"Ylivieska Airfield","city":"Ylivieska-raudaskyla","country":"Finland","lat":64.05472,"lng":24.72528},{"code":"BFS","name":"Belfast International Airport","city":"Belfast","country":"United Kingdom","lat":54.6575,"lng":-6.21583},{"code":"ENK","name":"St Angelo Airport","city":"Enniskillen","country":"United Kingdom","lat":54.3989,"lng":-7.65167},{"code":"BHD","name":"George Best Belfast City Airport","city":"Belfast","country":"United Kingdom","lat":54.6181,"lng":-5.8725},{"code":"LDY","name":"City of Derry Airport","city":"Londonderry","country":"United Kingdom","lat":55.0428,"lng":-7.16111},{"code":"BHX","name":"Birmingham International Airport","city":"Birmingham","country":"United Kingdom","lat":52.4539,"lng":-1.74803},{"code":"CVT","name":"Coventry Airport","city":"Coventry","country":"United Kingdom","lat":52.3697,"lng":-1.47972},{"code":"GLO","name":"Gloucestershire Airport","city":"Golouchestershire","country":"United Kingdom","lat":51.8942,"lng":-2.16722},{"code":"GBA","name":"Cotswold Airport","city":"Pailton","country":"United Kingdom","lat":51.6681,"lng":-2.05694},{"code":"MAN","name":"Manchester Airport","city":"Manchester","country":"United Kingdom","lat":53.3537,"lng":-2.27495},{"code":"NQY","name":"Newquay Cornwall Airport","city":"Newquai","country":"United Kingdom","lat":50.4406,"lng":-4.99541},{"code":"LYE","name":"RAF Lyneham","city":"Lyneham","country":"United Kingdom","lat":51.5051,"lng":-1.99343},{"code":"YEO","name":"RNAS Yeovilton","city":"Yeovilton","country":"United Kingdom","lat":51.0094,"lng":-2.63882},{"code":"HAW","name":"Haverfordwest Airport","city":"Haverfordwest","country":"United Kingdom","lat":51.8331,"lng":-4.96111},{"code":"CWL","name":"Cardiff International Airport","city":"Cardiff","country":"United Kingdom","lat":51.3967,"lng":-3.34333},{"code":"SWS","name":"Swansea Airport","city":"Swansea","country":"United Kingdom","lat":51.6053,"lng":-4.06783},{"code":"BRS","name":"Bristol Airport","city":"Bristol","country":"United Kingdom","lat":51.3827,"lng":-2.71909},{"code":"LPL","name":"Liverpool John Lennon Airport","city":"Liverpool","country":"United Kingdom","lat":53.3336,"lng":-2.84972},{"code":"LTN","name":"London Luton Airport","city":"London","country":"United Kingdom","lat":51.8747,"lng":-0.36833},{"code":"PLH","name":"Plymouth City Airport","city":"Plymouth","country":"United Kingdom","lat":50.4228,"lng":-4.10583},{"code":"BOH","name":"Bournemouth Airport","city":"Bournemouth","country":"United Kingdom","lat":50.78,"lng":-1.8425},{"code":"SOU","name":"Southampton Airport","city":"Southampton","country":"United Kingdom","lat":50.9503,"lng":-1.3568},{"code":"QLA","name":"Lasham Airport","city":"Lasham","country":"United Kingdom","lat":51.1872,"lng":-1.0335},{"code":"ACI","name":"Alderney Airport","city":"Alderney","country":"Guernsey","lat":49.7061,"lng":-2.21472},{"code":"GCI","name":"Guernsey Airport","city":"Guernsey","country":"Guernsey","lat":49.435,"lng":-2.60197},{"code":"JER","name":"Jersey Airport","city":"Jersey","country":"Jersey","lat":49.2079,"lng":-2.19551},{"code":"ESH","name":"Shoreham Airport","city":"Shoreham By Sea","country":"United Kingdom","lat":50.8356,"lng":-0.29722},{"code":"BQH","name":"London Biggin Hill Airport","city":"Biggin Hill","country":"United Kingdom","lat":51.3308,"lng":0.0325},{"code":"LGW","name":"London Gatwick Airport","city":"London","country":"United Kingdom","lat":51.1481,"lng":-0.19028},{"code":"LCY","name":"London City Airport","city":"London","country":"United Kingdom","lat":51.5053,"lng":0.05528},{"code":"FAB","name":"Farnborough Airport","city":"Farnborough","country":"United Kingdom","lat":51.2758,"lng":-0.77633},{"code":"BBS","name":"Blackbushe Airport","city":"Blackbushe","country":"United Kingdom","lat":51.3239,"lng":-0.8475},{"code":"LHR","name":"London Heathrow Airport","city":"London","country":"United Kingdom","lat":51.4706,"lng":-0.46194},{"code":"SEN","name":"Southend Airport","city":"Southend","country":"United Kingdom","lat":51.5714,"lng":0.69556},{"code":"LYX","name":"Lydd Airport","city":"Lydd","country":"United Kingdom","lat":50.9561,"lng":0.93917},{"code":"MSE","name":"Kent International Airport","city":"Manston","country":"United Kingdom","lat":51.3422,"lng":1.34611},{"code":"CAX","name":"Carlisle Airport","city":"Carlisle","country":"United Kingdom","lat":54.9375,"lng":-2.80917},{"code":"BLK","name":"Blackpool International Airport","city":"Blackpool","country":"United Kingdom","lat":53.7717,"lng":-3.02861},{"code":"HUY","name":"Humberside Airport","city":"Humberside","country":"United Kingdom","lat":53.5744,"lng":-0.35083},{"code":"BWF","name":"Barrow Walney Island Airport","city":"Barrow Island","country":"United Kingdom","lat":54.12861,"lng":-3.2675},{"code":"LBA","name":"Leeds Bradford Airport","city":"Leeds","country":"United Kingdom","lat":53.8659,"lng":-1.66057},{"code":"WRT","name":"Warton Airport","city":"Warton","country":"United Kingdom","lat":53.7451,"lng":-2.88306},{"code":"CEG","name":"Hawarden Airport","city":"Hawarden","country":"United Kingdom","lat":53.1781,"lng":-2.97778},{"code":"IOM","name":"Isle of Man Airport","city":"Isle Of Man","country":"Isle of Man","lat":54.0833,"lng":-4.62389},{"code":"NCL","name":"Newcastle Airport","city":"Newcastle","country":"United Kingdom","lat":55.0375,"lng":-1.69167},{"code":"MME","name":"Durham Tees Valley Airport","city":"Teesside","country":"United Kingdom","lat":54.5092,"lng":-1.42941},{"code":"EMA","name":"East Midlands Airport","city":"East Midlands","country":"United Kingdom","lat":52.8311,"lng":-1.32806},{"code":"KOI","name":"Kirkwall Airport","city":"Kirkwall","country":"United Kingdom","lat":58.9578,"lng":-2.905},{"code":"LSI","name":"Sumburgh Airport","city":"Sumburgh","country":"United Kingdom","lat":59.8789,"lng":-1.29556},{"code":"WIC","name":"Wick Airport","city":"Wick","country":"United Kingdom","lat":58.4589,"lng":-3.09306},{"code":"ABZ","name":"Aberdeen Dyce Airport","city":"Aberdeen","country":"United Kingdom","lat":57.2019,"lng":-2.19778},{"code":"INV","name":"Inverness Airport","city":"Inverness","country":"United Kingdom","lat":57.5425,"lng":-4.0475},{"code":"GLA","name":"Glasgow International Airport","city":"Glasgow","country":"United Kingdom","lat":55.8719,"lng":-4.43306},{"code":"EDI","name":"Edinburgh Airport","city":"Edinburgh","country":"United Kingdom","lat":55.95,"lng":-3.3725},{"code":"ILY","name":"Islay Airport","city":"Islay","country":"United Kingdom","lat":55.6819,"lng":-6.25667},{"code":"PIK","name":"Glasgow Prestwick Airport","city":"Prestwick","country":"United Kingdom","lat":55.5094,"lng":-4.58667},{"code":"BEB","name":"Benbecula Airport","city":"Benbecula","country":"United Kingdom","lat":57.4811,"lng":-7.36278},{"code":"SCS","name":"Scatsta Airport","city":"Scatsta","country":"United Kingdom","lat":60.4328,"lng":-1.29611},{"code":"DND","name":"Dundee Airport","city":"Dundee","country":"United Kingdom","lat":56.4525,"lng":-3.02583},{"code":"SYY","name":"Stornoway Airport","city":"Stornoway","country":"United Kingdom","lat":58.2156,"lng":-6.33111},{"code":"TRE","name":"Tiree Airport","city":"Tiree","country":"United Kingdom","lat":56.4992,"lng":-6.86917},{"code":"ADX","name":"RAF Leuchars","city":"Leuchars","country":"United Kingdom","lat":56.3729,"lng":-2.86844},{"code":"LMO","name":"RAF Lossiemouth","city":"Lossiemouth","country":"United Kingdom","lat":57.7052,"lng":-3.33917},{"code":"CBG","name":"Cambridge Airport","city":"Cambridge","country":"United Kingdom","lat":52.205,"lng":0.175},{"code":"NWI","name":"Norwich International Airport","city":"Norwich","country":"United Kingdom","lat":52.6758,"lng":1.28278},{"code":"STN","name":"London Stansted Airport","city":"London","country":"United Kingdom","lat":51.885,"lng":0.235},{"code":"EXT","name":"Exeter International Airport","city":"Exeter","country":"United Kingdom","lat":50.7344,"lng":-3.41389},{"code":"FZO","name":"Bristol Filton Airport","city":"Bristol","country":"United Kingdom","lat":51.5194,"lng":-2.59083},{"code":"OXF","name":"Oxford (Kidlington) Airport","city":"Oxford","country":"United Kingdom","lat":51.8369,"lng":-1.32},{"code":"BEX","name":"RAF Benson","city":"Benson","country":"United Kingdom","lat":51.6164,"lng":-1.09583},{"code":"LKZ","name":"RAF Lakenheath","city":"Lakenheath","country":"United Kingdom","lat":52.4093,"lng":0.561},{"code":"MHZ","name":"RAF Mildenhall","city":"Mildenhall","country":"United Kingdom","lat":52.3619,"lng":0.48641},{"code":"QUY","name":"RAF Wyton","city":"Wyton","country":"United Kingdom","lat":52.3572,"lng":-0.10783},{"code":"FFD","name":"RAF Fairford","city":"Fairford","country":"United Kingdom","lat":51.6822,"lng":-1.79003},{"code":"BZZ","name":"RAF Brize Norton","city":"Brize Norton","country":"United Kingdom","lat":51.75,"lng":-1.58362},{"code":"ODH","name":"RAF Odiham","city":"Odiham","country":"United Kingdom","lat":51.2341,"lng":-0.94283},{"code":"NHT","name":"RAF Northolt","city":"Northolt","country":"United Kingdom","lat":51.553,"lng":-0.41817},{"code":"QCY","name":"RAF Coningsby","city":"Coningsby","country":"United Kingdom","lat":53.093,"lng":-0.16601},{"code":"BEQ","name":"RAF Honington","city":"Honington","country":"United Kingdom","lat":52.3426,"lng":0.77294},{"code":"SQZ","name":"RAF Scampton","city":"Scampton","country":"United Kingdom","lat":53.3078,"lng":-0.55083},{"code":"HRT","name":"RAF Linton-On-Ouse","city":"Linton-on-ouse","country":"United Kingdom","lat":54.0489,"lng":-1.25275},{"code":"WTN","name":"RAF Waddington","city":"Waddington","country":"United Kingdom","lat":53.1662,"lng":-0.52381},{"code":"KNF","name":"RAF Marham","city":"Marham","country":"United Kingdom","lat":52.6484,"lng":0.55069},{"code":"MPN","name":"Mount Pleasant Airport","city":"Mount Pleasant","country":"Falkland Islands","lat":-51.8228,"lng":-58.4472},{"code":"AMS","name":"Amsterdam Airport Schiphol","city":"Amsterdam","country":"Netherlands","lat":52.3086,"lng":4.76389},{"code":"MST","name":"Maastricht Aachen Airport","city":"Maastricht","country":"Netherlands","lat":50.9117,"lng":5.77014},{"code":"EIN","name":"Eindhoven Airport","city":"Eindhoven","country":"Netherlands","lat":51.4501,"lng":5.37453},{"code":"GRQ","name":"Eelde Airport","city":"Groningen","country":"Netherlands","lat":53.1197,"lng":6.57944},{"code":"GLZ","name":"Gilze Rijen Air Base","city":"Gilze-rijen","country":"Netherlands","lat":51.5674,"lng":4.93183},{"code":"DHR","name":"De Kooy Airport","city":"De Kooy","country":"Netherlands","lat":52.9234,"lng":4.78062},{"code":"LEY","name":"Lelystad Airport","city":"Lelystad","country":"Netherlands","lat":52.4603,"lng":5.52722},{"code":"LWR","name":"Leeuwarden Air Base","city":"Leeuwarden","country":"Netherlands","lat":53.2286,"lng":5.76056},{"code":"RTM","name":"Rotterdam The Hague Airport","city":"Rotterdam","country":"Netherlands","lat":51.9569,"lng":4.43722},{"code":"UTC","name":"Soesterberg Air Base","city":"Soesterberg","country":"Netherlands","lat":52.1273,"lng":5.27619},{"code":"ENS","name":"Twente Airport","city":"Enschede","country":"Netherlands","lat":52.27583,"lng":6.88917},{"code":"LID","name":"Valkenburg Naval Air Base","city":"Valkenburg","country":"Netherlands","lat":52.1661,"lng":4.41794},{"code":"WOE","name":"Woensdrecht Air Base","city":"Woensdrecht","country":"Netherlands","lat":51.4491,"lng":4.34203},{"code":"ORK","name":"Cork Airport","city":"Cork","country":"Ireland","lat":51.8413,"lng":-8.49111},{"code":"GWY","name":"Galway Airport","city":"Galway","country":"Ireland","lat":53.3002,"lng":-8.94159},{"code":"DUB","name":"Dublin Airport","city":"Dublin","country":"Ireland","lat":53.4213,"lng":-6.27007},{"code":"NOC","name":"Ireland West Knock Airport","city":"Connaught","country":"Ireland","lat":53.9103,"lng":-8.81849},{"code":"KIR","name":"Kerry Airport","city":"Kerry","country":"Ireland","lat":52.1809,"lng":-9.52378},{"code":"SNN","name":"Shannon Airport","city":"Shannon","country":"Ireland","lat":52.702,"lng":-8.92482},{"code":"SXL","name":"Sligo Airport","city":"Sligo","country":"Ireland","lat":54.2802,"lng":-8.59921},{"code":"WAT","name":"Waterford Airport","city":"Waterford","country":"Ireland","lat":52.1872,"lng":-7.08696},{"code":"AAR","name":"Aarhus Airport","city":"Aarhus","country":"Denmark","lat":56.3,"lng":10.619},{"code":"BLL","name":"Billund Airport","city":"Billund","country":"Denmark","lat":55.7403,"lng":9.15178},{"code":"CPH","name":"Copenhagen Kastrup Airport","city":"Copenhagen","country":"Denmark","lat":55.6179,"lng":12.656},{"code":"EBJ","name":"Esbjerg Airport","city":"Esbjerg","country":"Denmark","lat":55.5259,"lng":8.5534},{"code":"KRP","name":"Karup Airport","city":"Karup","country":"Denmark","lat":56.2975,"lng":9.12463},{"code":"BYR","name":"Læsø Airport","city":"Laeso","country":"Denmark","lat":57.2772,"lng":11.0001},{"code":"MRW","name":"Lolland Falster Maribo Airport","city":"Maribo","country":"Denmark","lat":54.6993,"lng":11.4401},{"code":"ODE","name":"Odense Airport","city":"Odense","country":"Denmark","lat":55.4767,"lng":10.3309},{"code":"RKE","name":"Copenhagen Roskilde Airport","city":"Copenhagen","country":"Denmark","lat":55.5856,"lng":12.1314},{"code":"RNN","name":"Bornholm Airport","city":"Ronne","country":"Denmark","lat":55.0633,"lng":14.7596},{"code":"SGD","name":"Sønderborg Airport","city":"Soenderborg","country":"Denmark","lat":54.9644,"lng":9.79173},{"code":"SKS","name":"Skrydstrup Air Base","city":"Skrydstrup","country":"Denmark","lat":55.22105,"lng":9.26702},{"code":"SQW","name":"Skive Airport","city":"Skive","country":"Denmark","lat":56.5502,"lng":9.17298},{"code":"TED","name":"Thisted Airport","city":"Thisted","country":"Denmark","lat":57.0688,"lng":8.70522},{"code":"FAE","name":"Vagar Airport","city":"Vagar","country":"Faroe Islands","lat":62.0636,"lng":-7.27722},{"code":"STA","name":"Stauning Airport","city":"Stauning","country":"Denmark","lat":55.9901,"lng":8.35391},{"code":"AAL","name":"Aalborg Airport","city":"Aalborg","country":"Denmark","lat":57.09276,"lng":9.84924},{"code":"LUX","name":"Luxembourg-Findel International Airport","city":"Luxemburg","country":"Luxembourg","lat":49.62333,"lng":6.20444},{"code":"AES","name":"Ålesund Airport","city":"Alesund","country":"Norway","lat":62.5625,"lng":6.1197},{"code":"ANX","name":"Andøya Airport","city":"Andoya","country":"Norway","lat":69.2925,"lng":16.1442},{"code":"ALF","name":"Alta Airport","city":"Alta","country":"Norway","lat":69.9761,"lng":23.3717},{"code":"BNN","name":"Brønnøysund Airport","city":"Bronnoysund","country":"Norway","lat":65.4611,"lng":12.2175},{"code":"BOO","name":"Bodø Airport","city":"Bodo","country":"Norway","lat":67.2692,"lng":14.3653},{"code":"BGO","name":"Bergen Airport Flesland","city":"Bergen","country":"Norway","lat":60.2934,"lng":5.21814},{"code":"BJF","name":"Båtsfjord Airport","city":"Batsfjord","country":"Norway","lat":70.6005,"lng":29.6914},{"code":"KRS","name":"Kristiansand Airport","city":"Kristiansand","country":"Norway","lat":58.2042,"lng":8.08537},{"code":"DLD","name":"Geilo Airport Dagali","city":"Geilo","country":"Norway","lat":60.4173,"lng":8.51835},{"code":"BDU","name":"Bardufoss Airport","city":"Bardufoss","country":"Norway","lat":69.0558,"lng":18.5404},{"code":"EVE","name":"Harstad/Narvik Airport, Evenes","city":"Harstad/Narvik","country":"Norway","lat":68.4913,"lng":16.6781},{"code":"VDB","name":"Leirin Airport","city":"Fagernes","country":"Norway","lat":61.0156,"lng":9.28806},{"code":"FRO","name":"Florø Airport","city":"Floro","country":"Norway","lat":61.5836,"lng":5.02472},{"code":"OSL","name":"Oslo Lufthavn","city":"Oslo","country":"Norway","lat":60.121,"lng":11.0502},{"code":"HAU","name":"Haugesund Airport","city":"Haugesund","country":"Norway","lat":59.3453,"lng":5.20836},{"code":"HAA","name":"Hasvik Airport","city":"Hasvik","country":"Norway","lat":70.4867,"lng":22.1397},{"code":"KSU","name":"Kristiansund Airport (Kvernberget)","city":"Kristiansund","country":"Norway","lat":63.1118,"lng":7.82452},{"code":"KKN","name":"Kirkenes Airport (Høybuktmoen)","city":"Kirkenes","country":"Norway","lat":69.7258,"lng":29.8913},{"code":"FAN","name":"Lista Airport","city":"Farsund","country":"Norway","lat":58.0995,"lng":6.62605},{"code":"MOL","name":"Molde Airport","city":"Molde","country":"Norway","lat":62.7447,"lng":7.2625},{"code":"MJF","name":"Mosjøen Airport (Kjærstad)","city":"Mosjoen","country":"Norway","lat":65.784,"lng":13.2149},{"code":"LKL","name":"Banak Airport","city":"Lakselv","country":"Norway","lat":70.0688,"lng":24.9735},{"code":"NTB","name":"Notodden Airport","city":"Notodden","country":"Norway","lat":59.5657,"lng":9.21222},{"code":"OLA","name":"Ørland Airport","city":"Orland","country":"Norway","lat":63.6989,"lng":9.604},{"code":"RRS","name":"Røros Airport","city":"Roros","country":"Norway","lat":62.5784,"lng":11.3423},{"code":"RYG","name":"Moss Airport, Rygge","city":"Rygge","country":"Norway","lat":59.37882,"lng":10.78544},{"code":"LYR","name":"Svalbard Airport, Longyear","city":"Svalbard","country":"Norway","lat":78.2461,"lng":15.4656},{"code":"SKE","name":"Skien Airport","city":"Skien","country":"Norway","lat":59.185,"lng":9.56694},{"code":"SRP","name":"Stord Airport","city":"Stord","country":"Norway","lat":59.7919,"lng":5.34085},{"code":"SSJ","name":"Sandnessjøen Airport (Stokka)","city":"Sandnessjoen","country":"Norway","lat":65.9568,"lng":12.4689},{"code":"TOS","name":"Tromsø Airport,","city":"Tromso","country":"Norway","lat":69.6833,"lng":18.9189},{"code":"TRF","name":"Sandefjord Airport, Torp","city":"Sandefjord","country":"Norway","lat":59.1867,"lng":10.2586},{"code":"TRD","name":"Trondheim Airport Værnes","city":"Trondheim","country":"Norway","lat":63.4578,"lng":10.924},{"code":"SVG","name":"Stavanger Airport Sola","city":"Stavanger","country":"Norway","lat":58.8767,"lng":5.63778},{"code":"GDN","name":"Gdańsk Lech Wałęsa Airport","city":"Gdansk","country":"Poland","lat":54.3776,"lng":18.4662},{"code":"KRK","name":"Kraków John Paul II International Airport","city":"Krakow","country":"Poland","lat":50.0777,"lng":19.7848},{"code":"KTW","name":"Katowice International Airport","city":"Katowice","country":"Poland","lat":50.4743,"lng":19.08},{"code":"POZ","name":"Poznań-Ławica Airport","city":"Poznan","country":"Poland","lat":52.421,"lng":16.8263},{"code":"RZE","name":"Rzeszów-Jasionka Airport","city":"Rzeszow","country":"Poland","lat":50.11,"lng":22.019},{"code":"SZZ","name":"Szczecin-Goleniów \"Solidarność\" Airport","city":"Szczecin","country":"Poland","lat":53.5847,"lng":14.9022},{"code":"OSP","name":"Redzikowo Air Base","city":"Slupsk","country":"Poland","lat":54.4789,"lng":17.1075},{"code":"WAW","name":"Warsaw Chopin Airport","city":"Warsaw","country":"Poland","lat":52.1657,"lng":20.9671},{"code":"WRO","name":"Copernicus Wrocław Airport","city":"Wroclaw","country":"Poland","lat":51.1027,"lng":16.8858},{"code":"IEG","name":"Zielona Góra-Babimost Airport","city":"Zielona Gora","country":"Poland","lat":52.1385,"lng":15.7986},{"code":"RNB","name":"Ronneby Airport","city":"Ronneby","country":"Sweden","lat":56.2667,"lng":15.265},{"code":"GOT","name":"Gothenburg-Landvetter Airport","city":"Gothenborg","country":"Sweden","lat":57.6628,"lng":12.2798},{"code":"JKG","name":"Jönköping Airport","city":"Joenkoeping","country":"Sweden","lat":57.7576,"lng":14.0687},{"code":"LDK","name":"Lidköping-Hovby Airport","city":"Lidkoping","country":"Sweden","lat":58.4655,"lng":13.1744},{"code":"GSE","name":"Gothenburg City Airport","city":"Gothenborg","country":"Sweden","lat":57.7747,"lng":11.8704},{"code":"KVB","name":"Skövde Airport","city":"Skovde","country":"Sweden","lat":58.4564,"lng":13.9727},{"code":"THN","name":"Trollhättan-Vänersborg Airport","city":"Trollhattan","country":"Sweden","lat":58.3181,"lng":12.345},{"code":"KSK","name":"Karlskoga Airport","city":"Karlskoga","country":"Sweden","lat":59.3459,"lng":14.4959},{"code":"MXX","name":"Mora Airport","city":"Mora","country":"Sweden","lat":60.9579,"lng":14.5114},{"code":"NYO","name":"Stockholm Skavsta Airport","city":"Stockholm","country":"Sweden","lat":58.7886,"lng":16.9122},{"code":"KID","name":"Kristianstad Airport","city":"Kristianstad","country":"Sweden","lat":55.9217,"lng":14.0855},{"code":"OSK","name":"Oskarshamn Airport","city":"Oskarshamn","country":"Sweden","lat":57.3505,"lng":16.498},{"code":"KLR","name":"Kalmar Airport","city":"Kalkmar","country":"Sweden","lat":56.6855,"lng":16.2876},{"code":"MMX","name":"Malmö Sturup Airport","city":"Malmoe","country":"Sweden","lat":55.53631,"lng":13.3762},{"code":"HAD","name":"Halmstad Airport","city":"Halmstad","country":"Sweden","lat":56.6911,"lng":12.8202},{"code":"VXO","name":"Växjö Kronoberg Airport","city":"Vaxjo","country":"Sweden","lat":56.9291,"lng":14.728},{"code":"EVG","name":"Sveg Airport","city":"Sveg","country":"Sweden","lat":62.0478,"lng":14.4229},{"code":"GEV","name":"Gällivare Airport","city":"Gallivare","country":"Sweden","lat":67.1324,"lng":20.8146},{"code":"HUV","name":"Hudiksvall Airport","city":"Hudiksvall","country":"Sweden","lat":61.7681,"lng":17.0807},{"code":"KRF","name":"Kramfors Sollefteå Airport","city":"Kramfors","country":"Sweden","lat":63.0486,"lng":17.7689},{"code":"LYC","name":"Lycksele Airport","city":"Lycksele","country":"Sweden","lat":64.5483,"lng":18.7162},{"code":"SDL","name":"Sundsvall-Härnösand Airport","city":"Sundsvall","country":"Sweden","lat":62.5281,"lng":17.4439},{"code":"OER","name":"Örnsköldsvik Airport","city":"Ornskoldsvik","country":"Sweden","lat":63.4083,"lng":18.99},{"code":"KRN","name":"Kiruna Airport","city":"Kiruna","country":"Sweden","lat":67.822,"lng":20.3368},{"code":"SFT","name":"Skellefteå Airport","city":"Skelleftea","country":"Sweden","lat":64.6248,"lng":21.0769},{"code":"UME","name":"Umeå Airport","city":"Umea","country":"Sweden","lat":63.7918,"lng":20.2828},{"code":"VHM","name":"Vilhelmina Airport","city":"Vilhelmina","country":"Sweden","lat":64.5791,"lng":16.8336},{"code":"AJR","name":"Arvidsjaur Airport","city":"Arvidsjaur","country":"Sweden","lat":65.5903,"lng":19.2819},{"code":"ORB","name":"Örebro Airport","city":"Orebro","country":"Sweden","lat":59.2237,"lng":15.038},{"code":"VST","name":"Stockholm Västerås Airport","city":"Vasteras","country":"Sweden","lat":59.5894,"lng":16.6336},{"code":"LLA","name":"Luleå Airport","city":"Lulea","country":"Sweden","lat":65.5438,"lng":22.122},{"code":"ARN","name":"Stockholm-Arlanda Airport","city":"Stockholm","country":"Sweden","lat":59.6519,"lng":17.9186},{"code":"BMA","name":"Stockholm-Bromma Airport","city":"Stockholm","country":"Sweden","lat":59.3544,"lng":17.9417},{"code":"BLE","name":"Borlange Airport","city":"Borlange","country":"Sweden","lat":60.422,"lng":15.5152},{"code":"HLF","name":"Hultsfred Airport","city":"Hultsfred","country":"Sweden","lat":57.5258,"lng":15.8233},{"code":"GVX","name":"Gävle Sandviken Airport","city":"Gavle","country":"Sweden","lat":60.5933,"lng":16.9514},{"code":"LPI","name":"Linköping City Airport","city":"Linkoeping","country":"Sweden","lat":58.4062,"lng":15.6805},{"code":"NRK","name":"Norrköping Airport","city":"Norrkoeping","country":"Sweden","lat":58.5863,"lng":16.2506},{"code":"EKT","name":"Eskilstuna Airport","city":"Eskilstuna","country":"Sweden","lat":59.3511,"lng":16.7084},{"code":"VBY","name":"Visby Airport","city":"Visby","country":"Sweden","lat":57.6628,"lng":18.3462},{"code":"SPM","name":"Spangdahlem Air Base","city":"Spangdahlem","country":"Germany","lat":49.9727,"lng":6.6925},{"code":"RMS","name":"Ramstein Air Base","city":"Ramstein","country":"Germany","lat":49.4369,"lng":7.60028},{"code":"GHF","name":"[Duplicate] Giebelstadt Army Air Field","city":"Giebelstadt","country":"Germany","lat":49.6481,"lng":9.96649},{"code":"ZCN","name":"Celle Airport","city":"Celle","country":"Germany","lat":52.5912,"lng":10.0221},{"code":"FRZ","name":"Fritzlar Airport","city":"Fritzlar","country":"Germany","lat":51.1146,"lng":9.286},{"code":"ZNF","name":"Hanau Army Air Field","city":"Hanau","country":"Germany","lat":50.1692,"lng":8.96159},{"code":"KZG","name":"Flugplatz Kitzingen","city":"Kitzingen","country":"Germany","lat":49.7431,"lng":10.2006},{"code":"FCN","name":"Nordholz Naval Airbase","city":"Nordholz","country":"Germany","lat":53.7677,"lng":8.6585},{"code":"GKE","name":"Geilenkirchen Air Base","city":"Geilenkirchen","country":"Germany","lat":50.9608,"lng":6.04242},{"code":"RLG","name":"Rostock-Laage Airport","city":"Laage","country":"Germany","lat":53.9182,"lng":12.2783},{"code":"WBG","name":"Schleswig Air Base","city":"Schleswig","country":"Germany","lat":54.4593,"lng":9.51633},{"code":"WIE","name":"Wiesbaden Army Airfield","city":"Wiesbaden","country":"Germany","lat":50.0498,"lng":8.3254},{"code":"FEL","name":"Fürstenfeldbruck Air Base","city":"Fuerstenfeldbruck","country":"Germany","lat":48.20556,"lng":11.26694},{"code":"IGS","name":"Ingolstadt Manching Airport","city":"Ingolstadt","country":"Germany","lat":48.7157,"lng":11.534},{"code":"GUT","name":"Gütersloh Air Base","city":"Guetersloh","country":"Germany","lat":51.9228,"lng":8.30633},{"code":"ALJ","name":"Alexander Bay Airport","city":"Alexander Bay","country":"South Africa","lat":-28.575,"lng":16.5333},{"code":"AGZ","name":"Aggeneys Airport","city":"Aggeneys","country":"South Africa","lat":-29.2818,"lng":18.8139},{"code":"BIY","name":"Bisho Airport","city":"Bisho","country":"South Africa","lat":-32.8971,"lng":27.2791},{"code":"BFN","name":"Bram Fischer International Airport","city":"Bloemfontein","country":"South Africa","lat":-29.0927,"lng":26.3024},{"code":"CPT","name":"Cape Town International Airport","city":"Cape Town","country":"South Africa","lat":-33.9648,"lng":18.6017},{"code":"DUR","name":"King Shaka International Airport","city":"Durban","country":"South Africa","lat":-29.61444,"lng":31.11972},{"code":"ELS","name":"Ben Schoeman Airport","city":"East London","country":"South Africa","lat":-33.0356,"lng":27.8259},{"code":"FCB","name":"Ficksburg Sentraoes Airport","city":"Ficksburg","country":"South Africa","lat":-28.8231,"lng":27.9089},{"code":"GCJ","name":"Grand Central Airport","city":"Johannesburg","country":"South Africa","lat":-25.9863,"lng":28.1401},{"code":"GRJ","name":"George Airport","city":"George","country":"South Africa","lat":-34.0056,"lng":22.3789},{"code":"HRS","name":"Harrismith Airport","city":"Harrismith","country":"South Africa","lat":-28.2351,"lng":29.1062},{"code":"HDS","name":"Hoedspruit Air Force Base Airport","city":"Hoedspruit","country":"South Africa","lat":-24.3686,"lng":31.0487},{"code":"JNB","name":"OR Tambo International Airport","city":"Johannesburg","country":"South Africa","lat":-26.1392,"lng":28.246},{"code":"KXE","name":"P C Pelser Airport","city":"Klerksdorp","country":"South Africa","lat":-26.8711,"lng":26.718},{"code":"KIM","name":"Kimberley Airport","city":"Kimberley","country":"South Africa","lat":-28.8028,"lng":24.7652},{"code":"KMH","name":"Johan Pienaar Airport","city":"Kuruman","country":"South Africa","lat":-27.4567,"lng":23.4114},{"code":"KLZ","name":"Kleinsee Airport","city":"Kleinsee","country":"South Africa","lat":-29.6884,"lng":17.094},{"code":"HLA","name":"Lanseria Airport","city":"Johannesburg","country":"South Africa","lat":-25.9385,"lng":27.9261},{"code":"SDB","name":"Langebaanweg Airport","city":"Langebaanweg","country":"South Africa","lat":-32.9689,"lng":18.1603},{"code":"LAY","name":"Ladysmith Airport","city":"Ladysmith","country":"South Africa","lat":-28.5817,"lng":29.7497},{"code":"MGH","name":"Margate Airport","city":"Margate","country":"South Africa","lat":-30.8574,"lng":30.343},{"code":"LLE","name":"Riverside Airport","city":"Malalane","country":"South Africa","lat":-25.43,"lng":31.5767},{"code":"MZQ","name":"Mkuze Airport","city":"Mkuze","country":"South Africa","lat":-27.6261,"lng":32.0443},{"code":"NCS","name":"Newcastle Airport","city":"Newcastle","country":"South Africa","lat":-27.7706,"lng":29.9769},{"code":"OVG","name":"Overberg Airport","city":"Overberg","country":"South Africa","lat":-34.5549,"lng":20.2507},{"code":"OUH","name":"Oudtshoorn Airport","city":"Oudtshoorn","country":"South Africa","lat":-33.607,"lng":22.189},{"code":"PLZ","name":"Port Elizabeth Airport","city":"Port Elizabeth","country":"South Africa","lat":-33.9849,"lng":25.6173},{"code":"PBZ","name":"Plettenberg Bay Airport","city":"Plettenberg Bay","country":"South Africa","lat":-34.08816,"lng":23.32872},{"code":"PHW","name":"Hendrik Van Eck Airport","city":"Phalaborwa","country":"South Africa","lat":-23.9372,"lng":31.1554},{"code":"JOH","name":"Port St Johns Airport","city":"Port Saint Johns","country":"South Africa","lat":-31.6059,"lng":29.5198},{"code":"PZB","name":"Pietermaritzburg Airport","city":"Pietermaritzburg","country":"South Africa","lat":-29.649,"lng":30.3987},{"code":"NTY","name":"Pilanesberg International Airport","city":"Pilanesberg","country":"South Africa","lat":-25.3338,"lng":27.1734},{"code":"PTG","name":"Polokwane International Airport","city":"Potgietersrus","country":"South Africa","lat":-23.84527,"lng":29.45862},{"code":"PCF","name":"Potchefstroom Airport","city":"Potchefstroom","country":"South Africa","lat":-26.671,"lng":27.0819},{"code":"UTW","name":"Queenstown Airport","city":"Queenstown","country":"South Africa","lat":-31.9202,"lng":26.8822},{"code":"RCB","name":"Richards Bay Airport","city":"Richard's Bay","country":"South Africa","lat":-28.741,"lng":32.0921},{"code":"ROD","name":"Robertson Airport","city":"Robertson","country":"South Africa","lat":-33.8122,"lng":19.9028},{"code":"SBU","name":"Springbok Airport","city":"Springbok","country":"South Africa","lat":-29.6893,"lng":17.9396},{"code":"ZEC","name":"Secunda Airport","city":"Secunda","country":"South Africa","lat":-26.5241,"lng":29.1701},{"code":"SIS","name":"Sishen Airport","city":"Sishen","country":"South Africa","lat":-27.6486,"lng":22.9993},{"code":"SZK","name":"Skukuza Airport","city":"Skukuza","country":"South Africa","lat":-24.9609,"lng":31.5887},{"code":"LTA","name":"Tzaneen Airport","city":"Tzaneen","country":"South Africa","lat":-23.8244,"lng":30.3293},{"code":"ULD","name":"Prince Mangosuthu Buthelezi Airport","city":"Ulundi","country":"South Africa","lat":-28.3206,"lng":31.4165},{"code":"UTN","name":"Pierre Van Ryneveld Airport","city":"Upington","country":"South Africa","lat":-28.3991,"lng":21.2602},{"code":"UTT","name":"K. D. Matanzima Airport","city":"Umtata","country":"South Africa","lat":-31.54636,"lng":28.67336},{"code":"VRU","name":"Vryburg Airport","city":"Vryburg","country":"South Africa","lat":-26.9824,"lng":24.7288},{"code":"VIR","name":"Virginia Airport","city":"Durban","country":"South Africa","lat":-29.7706,"lng":31.0584},{"code":"VRE","name":"Vredendal Airport","city":"Vredendal","country":"South Africa","lat":-31.641,"lng":18.5448},{"code":"PRY","name":"Wonderboom Airport","city":"Pretoria","country":"South Africa","lat":-25.6539,"lng":28.2242},{"code":"WKF","name":"Waterkloof Air Force Base","city":"Waterkloof","country":"South Africa","lat":-25.83,"lng":28.2225},{"code":"FRW","name":"Francistown Airport","city":"Francistown","country":"Botswana","lat":-21.1596,"lng":27.4745},{"code":"JWA","name":"Jwaneng Airport","city":"Jwaneng","country":"Botswana","lat":-24.6023,"lng":24.691},{"code":"BBK","name":"Kasane Airport","city":"Kasane","country":"Botswana","lat":-17.8329,"lng":25.1624},{"code":"MUB","name":"Maun Airport","city":"Maun","country":"Botswana","lat":-19.9726,"lng":23.4311},{"code":"GBE","name":"Sir Seretse Khama International Airport","city":"Gaberone","country":"Botswana","lat":-24.5552,"lng":25.9182},{"code":"PKW","name":"Selebi Phikwe Airport","city":"Selebi-phikwe","country":"Botswana","lat":-22.0583,"lng":27.8288},{"code":"BZV","name":"Maya-Maya Airport","city":"Brazzaville","country":"Congo (Brazzaville)","lat":-4.2517,"lng":15.253},{"code":"FTX","name":"Owando Airport","city":"Owando","country":"Congo (Kinshasa)","lat":-0.53135,"lng":15.9501},{"code":"OUE","name":"Ouesso Airport","city":"Ouesso","country":"Congo (Kinshasa)","lat":1.61599,"lng":16.0379},{"code":"PNR","name":"Pointe Noire Airport","city":"Pointe-noire","country":"Congo (Brazzaville)","lat":-4.81603,"lng":11.8866},{"code":"MTS","name":"Matsapha Airport","city":"Manzini","country":"Swaziland","lat":-26.529,"lng":31.3075},{"code":"BGF","name":"Bangui M'Poko International Airport","city":"Bangui","country":"Central African Republic","lat":4.39848,"lng":18.5188},{"code":"BBT","name":"Berbérati Airport","city":"Berberati","country":"Central African Republic","lat":4.22158,"lng":15.7864},{"code":"BSG","name":"Bata Airport","city":"Bata","country":"Equatorial Guinea","lat":1.90547,"lng":9.80568},{"code":"SSG","name":"Malabo Airport","city":"Malabo","country":"Equatorial Guinea","lat":3.75527,"lng":8.70872},{"code":"ASI","name":"RAF Ascension Island","city":"Wide Awake","country":"Saint Helena","lat":-7.9696,"lng":-14.3937},{"code":"MRU","name":"Sir Seewoosagur Ramgoolam International Airport","city":"Plaisance","country":"Mauritius","lat":-20.4302,"lng":57.6836},{"code":"RRG","name":"Sir Charles Gaetan Duval Airport","city":"Rodriguez Island","country":"Mauritius","lat":-19.7577,"lng":63.361},{"code":"NKW","name":"Diego Garcia Naval Support Facility","city":"Diego Garcia Island","country":"British Indian Ocean Territory","lat":-7.31327,"lng":72.4111},{"code":"TKC","name":"Tiko Airport","city":"Tiko","country":"Cameroon","lat":4.08919,"lng":9.36053},{"code":"DLA","name":"Douala International Airport","city":"Douala","country":"Cameroon","lat":4.00608,"lng":9.71948},{"code":"MVR","name":"Salak Airport","city":"Maroua","country":"Cameroon","lat":10.4514,"lng":14.2574},{"code":"FOM","name":"Foumban Nkounja Airport","city":"Foumban","country":"Cameroon","lat":5.63692,"lng":10.7508},{"code":"NGE","name":"N'Gaoundéré Airport","city":"N'gaoundere","country":"Cameroon","lat":7.35701,"lng":13.5592},{"code":"GOU","name":"Garoua International Airport","city":"Garoua","country":"Cameroon","lat":9.33589,"lng":13.3701},{"code":"BFX","name":"Bafoussam Airport","city":"Bafoussam","country":"Cameroon","lat":5.53692,"lng":10.3546},{"code":"BPC","name":"Bamenda Airport","city":"Bamenda","country":"Cameroon","lat":6.03924,"lng":10.1226},{"code":"YAO","name":"Yaoundé Airport","city":"Yaounde","country":"Cameroon","lat":3.83604,"lng":11.5235},{"code":"CGJ","name":"Kasompe Airport","city":"Kasompe","country":"Zambia","lat":-12.5728,"lng":27.8939},{"code":"LVI","name":"Livingstone Airport","city":"Livingstone","country":"Zambia","lat":-17.8218,"lng":25.8227},{"code":"LUN","name":"Kenneth Kaunda International Airport Lusaka","city":"Lusaka","country":"Zambia","lat":-15.3308,"lng":28.4526},{"code":"MFU","name":"Mfuwe Airport","city":"Mfuwe","country":"Zambia","lat":-13.2589,"lng":31.9366},{"code":"MNR","name":"Mongu Airport","city":"Mongu","country":"Zambia","lat":-15.2545,"lng":23.1623},{"code":"NLA","name":"Simon Mwansa Kapwepwe International Airport","city":"Ndola","country":"Zambia","lat":-12.9981,"lng":28.6649},{"code":"KIW","name":"Southdowns Airport","city":"Southdowns","country":"Zambia","lat":-12.9005,"lng":28.1499},{"code":"HAH","name":"Prince Said Ibrahim International Airport","city":"Moroni","country":"Comoros","lat":-11.5337,"lng":43.2719},{"code":"NWA","name":"Mohéli Bandar Es Eslam Airport","city":"Moheli","country":"Comoros","lat":-12.2981,"lng":43.7664},{"code":"AJN","name":"Ouani Airport","city":"Anjouan","country":"Comoros","lat":-12.1317,"lng":44.4303},{"code":"DZA","name":"Dzaoudzi Pamandzi International Airport","city":"Dzaoudzi","country":"Mayotte","lat":-12.8047,"lng":45.2811},{"code":"RUN","name":"Roland Garros Airport","city":"St.-denis","country":"Reunion","lat":-20.8871,"lng":55.5103},{"code":"ZSE","name":"Pierrefonds Airport","city":"St.-pierre","country":"Reunion","lat":-21.3209,"lng":55.425},{"code":"TNR","name":"Ivato Airport","city":"Antananarivo","country":"Madagascar","lat":-18.7969,"lng":47.4788},{"code":"ZVA","name":"Miandrivazo Airport","city":"Miandrivazo","country":"Madagascar","lat":-19.5628,"lng":45.4508},{"code":"SMS","name":"Sainte Marie Airport","city":"Sainte Marie","country":"Madagascar","lat":-17.0939,"lng":49.8158},{"code":"TMM","name":"Toamasina Airport","city":"Toamasina","country":"Madagascar","lat":-18.1095,"lng":49.3925},{"code":"MOQ","name":"Morondava Airport","city":"Morondava","country":"Madagascar","lat":-20.2847,"lng":44.3176},{"code":"DIE","name":"Arrachart Airport","city":"Antsiranana","country":"Madagascar","lat":-12.3494,"lng":49.2917},{"code":"WMR","name":"Mananara Nord Airport","city":"Mananara","country":"Madagascar","lat":-16.1639,"lng":49.7738},{"code":"ZWA","name":"Andapa Airport","city":"Andapa","country":"Madagascar","lat":-14.6517,"lng":49.6206},{"code":"AMB","name":"Ambilobe Airport","city":"Ambilobe","country":"Madagascar","lat":-13.1884,"lng":48.988},{"code":"ANM","name":"Antsirabato Airport","city":"Antalaha","country":"Madagascar","lat":-14.9994,"lng":50.3202},{"code":"HVA","name":"Analalava Airport","city":"Analalava","country":"Madagascar","lat":-14.6297,"lng":47.7638},{"code":"MJN","name":"Amborovy Airport","city":"Mahajanga","country":"Madagascar","lat":-15.66684,"lng":46.35123},{"code":"NOS","name":"Fascene Airport","city":"Nosy-be","country":"Madagascar","lat":-13.3121,"lng":48.3148},{"code":"BPY","name":"Besalampy Airport","city":"Besalampy","country":"Madagascar","lat":-16.74453,"lng":44.48248},{"code":"WMN","name":"Maroantsetra Airport","city":"Maroantsetra","country":"Madagascar","lat":-15.4367,"lng":49.6883},{"code":"SVB","name":"Sambava Airport","city":"Sambava","country":"Madagascar","lat":-14.2786,"lng":50.1747},{"code":"VOH","name":"Vohimarina Airport","city":"Vohemar","country":"Madagascar","lat":-13.3758,"lng":50.0028},{"code":"WAI","name":"Ambalabe Airport","city":"Antsohihy","country":"Madagascar","lat":-14.8988,"lng":47.9939},{"code":"IVA","name":"Ampampamena Airport","city":"Ampampamena","country":"Madagascar","lat":-13.48482,"lng":48.6327},{"code":"FTU","name":"Tôlanaro Airport","city":"Tolagnaro","country":"Madagascar","lat":-25.0381,"lng":46.9561},{"code":"WFI","name":"Fianarantsoa Airport","city":"Fianarantsoa","country":"Madagascar","lat":-21.4416,"lng":47.1117},{"code":"RVA","name":"Farafangana Airport","city":"Farafangana","country":"Madagascar","lat":-22.8053,"lng":47.8206},{"code":"WVK","name":"Manakara Airport","city":"Manakara","country":"Madagascar","lat":-22.1197,"lng":48.0217},{"code":"MNJ","name":"Mananjary Airport","city":"Mananjary","country":"Madagascar","lat":-21.2018,"lng":48.3583},{"code":"MXM","name":"Morombe Airport","city":"Morombe","country":"Madagascar","lat":-21.7539,"lng":43.3755},{"code":"TLE","name":"Toliara Airport","city":"Toliara","country":"Madagascar","lat":-23.3834,"lng":43.7285},{"code":"SSY","name":"Mbanza Congo Airport","city":"M'banza-congo","country":"Angola","lat":-6.2699,"lng":14.247},{"code":"BUG","name":"Benguela Airport","city":"Benguela","country":"Angola","lat":-12.609,"lng":13.4037},{"code":"CAB","name":"Cabinda Airport","city":"Cabinda","country":"Angola","lat":-5.59699,"lng":12.1884},{"code":"NOV","name":"Nova Lisboa Airport","city":"Huambo","country":"Angola","lat":-12.8089,"lng":15.7605},{"code":"SVP","name":"Kuito Airport","city":"Kuito","country":"Angola","lat":-12.4046,"lng":16.9474},{"code":"LAD","name":"Quatro de Fevereiro Airport","city":"Luanda","country":"Angola","lat":-8.85837,"lng":13.2312},{"code":"MEG","name":"Malanje Airport","city":"Malanje","country":"Angola","lat":-9.52509,"lng":16.3124},{"code":"SPP","name":"Menongue Airport","city":"Menongue","country":"Angola","lat":-14.6576,"lng":17.7198},{"code":"GXG","name":"Negage Airport","city":"Negage","country":"Angola","lat":-7.75451,"lng":15.2877},{"code":"PBN","name":"Porto Amboim Airport","city":"Porto Amboim","country":"Angola","lat":-10.722,"lng":13.7655},{"code":"VHC","name":"Saurimo Airport","city":"Saurimo","country":"Angola","lat":-9.68907,"lng":20.4319},{"code":"SZA","name":"Soyo Airport","city":"Soyo","country":"Angola","lat":-6.14109,"lng":12.3718},{"code":"SDD","name":"Lubango Airport","city":"Lubango","country":"Angola","lat":-14.9247,"lng":13.575},{"code":"LUO","name":"Luena Airport","city":"Luena","country":"Angola","lat":-11.7681,"lng":19.8977},{"code":"UGO","name":"Uige Airport","city":"Uige","country":"Angola","lat":-7.60307,"lng":15.0278},{"code":"XGN","name":"Xangongo Airport","city":"Xangongo","country":"Angola","lat":-16.7554,"lng":14.9653},{"code":"OYE","name":"Oyem Airport","city":"Oyem","country":"Gabon","lat":1.54311,"lng":11.5814},{"code":"OKN","name":"Okondja Airport","city":"Okondja","country":"Gabon","lat":-0.66521,"lng":13.6731},{"code":"LBQ","name":"Lambarene Airport","city":"Lambarene","country":"Gabon","lat":-0.70439,"lng":10.2457},{"code":"BMM","name":"Bitam Airport","city":"Bitam","country":"Gabon","lat":2.07564,"lng":11.4932},{"code":"POG","name":"Port Gentil Airport","city":"Port Gentil","country":"Gabon","lat":-0.71174,"lng":8.75438},{"code":"OMB","name":"Omboue Hopital Airport","city":"Omboue Hospial","country":"Gabon","lat":-1.57473,"lng":9.26269},{"code":"MKU","name":"Makokou Airport","city":"Makokou","country":"Gabon","lat":0.57921,"lng":12.8909},{"code":"LBV","name":"Libreville Leon M'ba International Airport","city":"Libreville","country":"Gabon","lat":0.4586,"lng":9.41228},{"code":"MVB","name":"M'Vengue El Hadj Omar Bongo Ondimba International Airport","city":"Franceville","country":"Gabon","lat":-1.65616,"lng":13.438},{"code":"PCP","name":"Principe Airport","city":"Principe","country":"Sao Tome and Principe","lat":1.66294,"lng":7.41174},{"code":"TMS","name":"São Tomé International Airport","city":"Sao Tome","country":"Sao Tome and Principe","lat":0.37817,"lng":6.71215},{"code":"BEW","name":"Beira Airport","city":"Beira","country":"Mozambique","lat":-19.7964,"lng":34.9076},{"code":"INH","name":"Inhambane Airport","city":"Inhambane","country":"Mozambique","lat":-23.8764,"lng":35.4085},{"code":"VXC","name":"Lichinga Airport","city":"Lichinga","country":"Mozambique","lat":-13.274,"lng":35.2663},{"code":"LFB","name":"Lumbo Airport","city":"Lumbo","country":"Mozambique","lat":-15.0331,"lng":40.6717},{"code":"MPM","name":"Maputo Airport","city":"Maputo","country":"Mozambique","lat":-25.9208,"lng":32.5726},{"code":"MUD","name":"Mueda Airport","city":"Mueda","country":"Mozambique","lat":-11.6729,"lng":39.5631},{"code":"MZB","name":"Mocímboa da Praia Airport","city":"Mocimboa Da Praia","country":"Mozambique","lat":-11.3618,"lng":40.3549},{"code":"MNC","name":"Nacala Airport","city":"Nacala","country":"Mozambique","lat":-14.4882,"lng":40.7122},{"code":"APL","name":"Nampula Airport","city":"Nampula","country":"Mozambique","lat":-15.1056,"lng":39.2818},{"code":"POL","name":"Pemba Airport","city":"Pemba","country":"Mozambique","lat":-12.99176,"lng":40.52401},{"code":"UEL","name":"Quelimane Airport","city":"Quelimane","country":"Mozambique","lat":-17.8555,"lng":36.8691},{"code":"TET","name":"Chingozi Airport","city":"Tete","country":"Mozambique","lat":-16.1048,"lng":33.6402},{"code":"VNX","name":"Vilankulo Airport","city":"Vilankulu","country":"Mozambique","lat":-22.0184,"lng":35.3133},{"code":"DES","name":"Desroches Airport","city":"Desroches","country":"Seychelles","lat":-5.6967,"lng":53.6558},{"code":"SEZ","name":"Seychelles International Airport","city":"Mahe","country":"Seychelles","lat":-4.67434,"lng":55.5218},{"code":"PRI","name":"Praslin Airport","city":"Praslin","country":"Seychelles","lat":-4.31929,"lng":55.6914},{"code":"AEH","name":"Abeche Airport","city":"Abeche","country":"Chad","lat":13.847,"lng":20.8443},{"code":"MQQ","name":"Moundou Airport","city":"Moundou","country":"Chad","lat":8.62441,"lng":16.0714},{"code":"NDJ","name":"N'Djamena International Airport","city":"N'djamena","country":"Chad","lat":12.1337,"lng":15.034},{"code":"FYT","name":"Faya Largeau Airport","city":"Faya-largeau","country":"Chad","lat":17.9171,"lng":19.1111},{"code":"BUQ","name":"Joshua Mqabuko Nkomo International Airport","city":"Bulawayo","country":"Zimbabwe","lat":-20.0174,"lng":28.6179},{"code":"BFO","name":"Buffalo Range Airport","city":"Chiredzi","country":"Zimbabwe","lat":-21.0081,"lng":31.5786},{"code":"VFA","name":"Victoria Falls International Airport","city":"Victoria Falls","country":"Zimbabwe","lat":-18.0959,"lng":25.839},{"code":"HRE","name":"Robert Gabriel Mugabe International Airport","city":"Harare","country":"Zimbabwe","lat":-17.9318,"lng":31.0928},{"code":"KAB","name":"Kariba International Airport","city":"Kariba","country":"Zimbabwe","lat":-16.5198,"lng":28.885},{"code":"UTA","name":"Mutare Airport","city":"Mutare","country":"Zimbabwe","lat":-18.9975,"lng":32.6272},{"code":"MVZ","name":"Masvingo International Airport","city":"Masvingo","country":"Zimbabwe","lat":-20.0553,"lng":30.8591},{"code":"GWE","name":"Thornhill Air Base","city":"Gwert","country":"Zimbabwe","lat":-19.4364,"lng":29.8619},{"code":"HWN","name":"Hwange National Park Airport","city":"Hwange National Park","country":"Zimbabwe","lat":-18.6299,"lng":27.021},{"code":"BLZ","name":"Chileka International Airport","city":"Blantyre","country":"Malawi","lat":-15.6791,"lng":34.974},{"code":"KGJ","name":"Karonga Airport","city":"Karonga","country":"Malawi","lat":-9.95357,"lng":33.893},{"code":"KBQ","name":"Kasungu Airport","city":"Kasungu","country":"Malawi","lat":-13.0146,"lng":33.4686},{"code":"LLW","name":"Lilongwe International Airport","city":"Lilongwe","country":"Malawi","lat":-13.7894,"lng":33.781},{"code":"ZZU","name":"Mzuzu Airport","city":"Mzuzu","country":"Malawi","lat":-11.4447,"lng":34.0118},{"code":"MSU","name":"Moshoeshoe I International Airport","city":"Maseru","country":"Lesotho","lat":-29.4623,"lng":27.5525},{"code":"FIH","name":"Ndjili International Airport","city":"Kinshasa","country":"Congo (Kinshasa)","lat":-4.38575,"lng":15.4446},{"code":"NLO","name":"Ndolo Airport","city":"Kinshasa","country":"Congo (Kinshasa)","lat":-4.32666,"lng":15.3275},{"code":"MNB","name":"Muanda Airport","city":"Muanda","country":"Congo (Kinshasa)","lat":-5.93086,"lng":12.3518},{"code":"FDU","name":"Bandundu Airport","city":"Bandoundu","country":"Congo (Kinshasa)","lat":-3.31132,"lng":17.3817},{"code":"KKW","name":"Kikwit Airport","city":"Kikwit","country":"Congo (Kinshasa)","lat":-5.03577,"lng":18.7856},{"code":"MDK","name":"Mbandaka Airport","city":"Mbandaka","country":"Congo (Kinshasa)","lat":0.0226,"lng":18.2887},{"code":"BDT","name":"Gbadolite Airport","city":"Gbadolite","country":"Congo (Kinshasa)","lat":4.25321,"lng":20.9753},{"code":"GMA","name":"Gemena Airport","city":"Gemena","country":"Congo (Kinshasa)","lat":3.23537,"lng":19.7713},{"code":"KLI","name":"Kotakoli Airport","city":"Kotakoli","country":"Congo (Kinshasa)","lat":4.15764,"lng":21.6509},{"code":"LIQ","name":"Lisala Airport","city":"Lisala","country":"Congo (Kinshasa)","lat":2.17066,"lng":21.4969},{"code":"FKI","name":"Bangoka International Airport","city":"Kisangani","country":"Congo (Kinshasa)","lat":0.48164,"lng":25.338},{"code":"IRP","name":"Matari Airport","city":"Isiro","country":"Congo (Kinshasa)","lat":2.82761,"lng":27.5883},{"code":"BUX","name":"Bunia Airport","city":"Bunia","country":"Congo (Kinshasa)","lat":1.56572,"lng":30.2208},{"code":"BZU","name":"Buta Zega Airport","city":"Buta Zega","country":"Congo (Kinshasa)","lat":2.81835,"lng":24.7937},{"code":"BKY","name":"Bukavu Kavumu Airport","city":"Bukavu/kavumu","country":"Congo (Kinshasa)","lat":-2.30898,"lng":28.8088},{"code":"GOM","name":"Goma International Airport","city":"Goma","country":"Congo (Kinshasa)","lat":-1.67081,"lng":29.2385},{"code":"KND","name":"Kindu Airport","city":"Kindu","country":"Congo (Kinshasa)","lat":-2.91918,"lng":25.9154},{"code":"FBM","name":"Lubumbashi International Airport","city":"Lubumashi","country":"Congo (Kinshasa)","lat":-11.5913,"lng":27.5309},{"code":"KWZ","name":"Kolwezi Airport","city":"Kolwezi","country":"Congo (Kinshasa)","lat":-10.7659,"lng":25.5057},{"code":"FMI","name":"Kalemie Airport","city":"Kalemie","country":"Congo (Kinshasa)","lat":-5.87556,"lng":29.25},{"code":"KMN","name":"Kamina Base Airport","city":"Kamina Base","country":"Congo (Kinshasa)","lat":-8.64202,"lng":25.2529},{"code":"KGA","name":"Kananga Airport","city":"Kananga","country":"Congo (Kinshasa)","lat":-5.90005,"lng":22.4692},{"code":"MJM","name":"Mbuji Mayi Airport","city":"Mbuji-mayi","country":"Congo (Kinshasa)","lat":-6.12124,"lng":23.569},{"code":"BKO","name":"Modibo Keita International Airport","city":"Bamako","country":"Mali","lat":12.5335,"lng":-7.94994},{"code":"GAQ","name":"Gao Airport","city":"Gao","country":"Mali","lat":16.2484,"lng":-0.00546},{"code":"KYS","name":"Kayes Dag Dag Airport","city":"Kayes","country":"Mali","lat":14.4812,"lng":-11.4044},{"code":"MZI","name":"Mopti Airport","city":"Mopti","country":"Mali","lat":14.5128,"lng":-4.07956},{"code":"TOM","name":"Timbuktu Airport","city":"Tombouctou","country":"Mali","lat":16.7305,"lng":-3.00758},{"code":"BJL","name":"Banjul International Airport","city":"Banjul","country":"Gambia","lat":13.338,"lng":-16.6522},{"code":"FUE","name":"Fuerteventura Airport","city":"Fuerteventura","country":"Spain","lat":28.4527,"lng":-13.8638},{"code":"VDE","name":"Hierro Airport","city":"Hierro","country":"Spain","lat":27.8148,"lng":-17.8871},{"code":"SPC","name":"La Palma Airport","city":"Santa Cruz De La Palma","country":"Spain","lat":28.6265,"lng":-17.7556},{"code":"LPA","name":"Gran Canaria Airport","city":"Gran Canaria","country":"Spain","lat":27.9319,"lng":-15.3866},{"code":"ACE","name":"Lanzarote Airport","city":"Arrecife","country":"Spain","lat":28.9455,"lng":-13.6052},{"code":"TFS","name":"Tenerife South Airport","city":"Tenerife","country":"Spain","lat":28.0445,"lng":-16.5725},{"code":"TFN","name":"Tenerife Norte Airport","city":"Tenerife","country":"Spain","lat":28.4827,"lng":-16.3415},{"code":"MLN","name":"Melilla Airport","city":"Melilla","country":"Spain","lat":35.2798,"lng":-2.95626},{"code":"FNA","name":"Lungi International Airport","city":"Freetown","country":"Sierra Leone","lat":8.61644,"lng":-13.1955},{"code":"MLW","name":"Spriggs Payne Airport","city":"Monrovia","country":"Liberia","lat":6.28906,"lng":-10.7587},{"code":"ROB","name":"Roberts International Airport","city":"Monrovia","country":"Liberia","lat":6.23379,"lng":-10.3623},{"code":"AGA","name":"Al Massira Airport","city":"Agadir","country":"Morocco","lat":30.325,"lng":-9.41307},{"code":"TTA","name":"Tan Tan Airport","city":"Tan Tan","country":"Morocco","lat":28.4482,"lng":-11.1613},{"code":"FEZ","name":"Saïss Airport","city":"Fes","country":"Morocco","lat":33.9273,"lng":-4.97796},{"code":"ERH","name":"Moulay Ali Cherif Airport","city":"Er-rachidia","country":"Morocco","lat":31.9475,"lng":-4.39833},{"code":"MEK","name":"Bassatine Airport","city":"Meknes","country":"Morocco","lat":33.8791,"lng":-5.51512},{"code":"OUD","name":"Angads Airport","city":"Oujda","country":"Morocco","lat":34.7872,"lng":-1.92399},{"code":"GMD","name":"Ben Slimane Airport","city":"Ben Slimane","country":"Morocco","lat":33.6554,"lng":-7.22145},{"code":"RBA","name":"Rabat-Salé Airport","city":"Rabat","country":"Morocco","lat":34.0515,"lng":-6.75152},{"code":"CMN","name":"Mohammed V International Airport","city":"Casablanca","country":"Morocco","lat":33.3675,"lng":-7.58997},{"code":"RAK","name":"Menara Airport","city":"Marrakech","country":"Morocco","lat":31.6069,"lng":-8.0363},{"code":"NNA","name":"Kenitra Airport","city":"Kentira","country":"Morocco","lat":34.2989,"lng":-6.59588},{"code":"OZZ","name":"Ouarzazate Airport","city":"Ouarzazate","country":"Morocco","lat":30.9391,"lng":-6.90943},{"code":"AHU","name":"Cherif Al Idrissi Airport","city":"Al Hociema","country":"Morocco","lat":35.1771,"lng":-3.83952},{"code":"TTU","name":"Saniat R'mel Airport","city":"Tetouan","country":"Morocco","lat":35.5943,"lng":-5.32002},{"code":"TNG","name":"Ibn Batouta Airport","city":"Tanger","country":"Morocco","lat":35.7269,"lng":-5.91689},{"code":"ZIG","name":"Ziguinchor Airport","city":"Ziguinchor","country":"Senegal","lat":12.5556,"lng":-16.2818},{"code":"CSK","name":"Cap Skirring Airport","city":"Cap Skiring","country":"Senegal","lat":12.39533,"lng":-16.748},{"code":"KLC","name":"Kaolack Airport","city":"Kaolack","country":"Senegal","lat":14.1469,"lng":-16.0513},{"code":"DKR","name":"Léopold Sédar Senghor International Airport","city":"Dakar","country":"Senegal","lat":14.7397,"lng":-17.4902},{"code":"XLS","name":"Saint Louis Airport","city":"St. Louis","country":"Senegal","lat":16.0508,"lng":-16.4632},{"code":"BXE","name":"Bakel Airport","city":"Bakel","country":"Senegal","lat":14.8473,"lng":-12.4683},{"code":"KGG","name":"Kédougou Airport","city":"Kedougou","country":"Senegal","lat":12.5723,"lng":-12.2203},{"code":"TUD","name":"Tambacounda Airport","city":"Tambacounda","country":"Senegal","lat":13.7368,"lng":-13.6531},{"code":"AEO","name":"Aioun el Atrouss Airport","city":"Aioun El Atrouss","country":"Mauritania","lat":16.7113,"lng":-9.63788},{"code":"TIY","name":"Tidjikja Airport","city":"Tidjikja","country":"Mauritania","lat":18.5701,"lng":-11.4235},{"code":"KFA","name":"Kiffa Airport","city":"Kiffa","country":"Mauritania","lat":16.59,"lng":-11.4062},{"code":"EMN","name":"Néma Airport","city":"Nema","country":"Mauritania","lat":16.622,"lng":-7.3166},{"code":"KED","name":"Kaédi Airport","city":"Kaedi","country":"Mauritania","lat":16.1595,"lng":-13.5076},{"code":"NKC","name":"Nouakchott–Oumtounsy International Airport","city":"Nouakschott","country":"Mauritania","lat":18.31,"lng":-15.96972},{"code":"SEY","name":"Sélibaby Airport","city":"Selibabi","country":"Mauritania","lat":15.1797,"lng":-12.2073},{"code":"ATR","name":"Atar International Airport","city":"Atar","country":"Mauritania","lat":20.5068,"lng":-13.0432},{"code":"NDB","name":"Nouadhibou International Airport","city":"Nouadhibou","country":"Mauritania","lat":20.9331,"lng":-17.03},{"code":"FIG","name":"Fria Airport","city":"Fira","country":"Guinea","lat":10.3506,"lng":-13.5692},{"code":"FAA","name":"Faranah Airport","city":"Faranah","country":"Guinea","lat":10.0355,"lng":-10.7698},{"code":"LEK","name":"Tata Airport","city":"Labe","country":"Guinea","lat":11.3261,"lng":-12.2868},{"code":"SID","name":"Amílcar Cabral International Airport","city":"Amilcar Cabral","country":"Cape Verde","lat":16.7414,"lng":-22.9494},{"code":"BVC","name":"Rabil Airport","city":"Boa Vista","country":"Cape Verde","lat":16.1365,"lng":-22.8889},{"code":"MMO","name":"Maio Airport","city":"Maio","country":"Cape Verde","lat":15.1559,"lng":-23.2137},{"code":"SNE","name":"Preguiça Airport","city":"Sao Nocolau Island","country":"Cape Verde","lat":16.5884,"lng":-24.2847},{"code":"VXE","name":"São Pedro Airport","city":"Sao Vicente Island","country":"Cape Verde","lat":16.8332,"lng":-25.0553},{"code":"ADD","name":"Addis Ababa Bole International Airport","city":"Addis Ababa","country":"Ethiopia","lat":8.97789,"lng":38.7993},{"code":"AMH","name":"Arba Minch Airport","city":"Arba Minch","country":"Ethiopia","lat":6.03939,"lng":37.5905},{"code":"AXU","name":"Axum Airport","city":"Axum","country":"Ethiopia","lat":14.1468,"lng":38.7728},{"code":"BJR","name":"Bahir Dar Airport","city":"Bahar Dar","country":"Ethiopia","lat":11.6081,"lng":37.3216},{"code":"DIR","name":"Aba Tenna Dejazmach Yilma International Airport","city":"Dire Dawa","country":"Ethiopia","lat":9.6247,"lng":41.8542},{"code":"GMB","name":"Gambella Airport","city":"Gambella","country":"Ethiopia","lat":8.12876,"lng":34.5631},{"code":"GDQ","name":"Gonder Airport","city":"Gondar","country":"Ethiopia","lat":12.5199,"lng":37.434},{"code":"JIM","name":"Jimma Airport","city":"Jimma","country":"Ethiopia","lat":7.66609,"lng":36.8166},{"code":"LLI","name":"Lalibella Airport","city":"Lalibella","country":"Ethiopia","lat":11.975,"lng":38.98},{"code":"MQX","name":"Mekele Airport","city":"Makale","country":"Ethiopia","lat":13.4674,"lng":39.5335},{"code":"ASO","name":"Asosa Airport","city":"Asosa","country":"Ethiopia","lat":10.0185,"lng":34.5863},{"code":"BJM","name":"Bujumbura International Airport","city":"Bujumbura","country":"Burundi","lat":-3.32402,"lng":29.3185},{"code":"HGA","name":"Egal International Airport","city":"Hargeisa","country":"Somalia","lat":9.51817,"lng":44.0888},{"code":"BBO","name":"Berbera Airport","city":"Berbera","country":"Somalia","lat":10.3892,"lng":44.9411},{"code":"KMU","name":"Kisimayu Airport","city":"Kismayu","country":"Somalia","lat":-0.37735,"lng":42.4592},{"code":"ALY","name":"El Nouzha Airport","city":"Alexandria","country":"Egypt","lat":31.1839,"lng":29.9489},{"code":"ABS","name":"Abu Simbel Airport","city":"Abu Simbel","country":"Egypt","lat":22.376,"lng":31.6117},{"code":"CAI","name":"Cairo International Airport","city":"Cairo","country":"Egypt","lat":30.1219,"lng":31.4056},{"code":"CWE","name":"Cairo West Airport","city":"Cairo","country":"Egypt","lat":30.1164,"lng":30.9154},