[{"code":"BDHL","name":"Badhal","city":"Badhal","country":"India","lat":27.25206,"lng":75.45165},{"code":"KHH","name":"Kichha","city":"Kichha","country":"India","lat":28.91343,"lng":79.51975},{"code":"SRKN","name":"Sherekan","city":"Sherekan","country":"India","lat":29.5552,"lng":74.43499},{"code":"BKKA","name":"Bhukarka","city":"Bhukarka","country":"India","lat":29.23823,"lng":74.75103},{"code":"NHR","name":"Nohar","city":"Nohar","country":"India","lat":29.19256,"lng":74.77363},{"code":"PRGD","name":"Perungudi","city":"Perungudi","country":"India","lat":12.97522,"lng":80.23136},{"code":"KNNA","name":"Khinaniyan","city":"Khinaniyan","country":"India","lat":29.34564,"lng":74.71796},{"code":"JKR","name":"Jaulkhera","city":"Jaulkhera","country":"India","lat":21.83847,"lng":78.21668},{"code":"BYS","name":"Barsali","city":"Barsali","country":"India","lat":21.90981,"lng":78.03136},{"code":"GW","name":"Girwar","city":"Girwar","country":"India","lat":23.83819,"lng":78.93631},{"code":"DGD","name":"Dangidhar","city":"Dangidhar","country":"India","lat":23.87177,"lng":79.01991},{"code":"DOD","name":"Dhodhar","city":"Dhodhar","country":"India","lat":23.77074,"lng":75.10355},{"code":"GAJ","name":"Ganeshganj","city":"Ganeshganj","country":"India","lat":23.89586,"lng":79.07463},{"code":"JNM","name":"Jayanagar Majilpur Halt","city":"Jayanagar Majilpur Halt","country":"India","lat":22.16864,"lng":88.41532},{"code":"NSD","name":"Nasirabad","city":"Nasirabad","country":"India","lat":26.29446,"lng":74.71699},{"code":"PHA","name":"Patharia","city":"Patharia","country":"India","lat":23.90573,"lng":79.1929},{"code":"NZB","name":"Nizamabad","city":"Nizamabad","country":"India","lat":18.67916,"lng":78.10324},{"code":"RJO","name":"Rajendra Pul","city":"Rajendra Pul","country":"India","lat":25.38745,"lng":86.01055},{"code":"ADT","name":"Aduturai","city":"Aduturai","country":"India","lat":11.00917,"lng":79.47867},{"code":"KMU","name":"Kumbakonam","city":"Kumbakonam","country":"India","lat":10.95296,"lng":79.38864},{"code":"MNM","name":"Manamadurai Jn","city":"Manamadurai Jn","country":"India","lat":9.68154,"lng":78.45351},{"code":"GKP","name":"Gorakhpur Jn","city":"Gorakhpur Jn","country":"India","lat":26.75931,"lng":83.3815},{"code":"VRM","name":"Varnama","city":"Varnama","country":"India","lat":22.18427,"lng":73.16928},{"code":"GKC","name":"Gorakhpur Cant","city":"Gorakhpur Cant","country":"India","lat":26.75065,"lng":83.41682},{"code":"ITA","name":"Itola","city":"Itola","country":"India","lat":22.14989,"lng":73.15675},{"code":"BTU","name":"Baraut","city":"Baraut","country":"India","lat":29.09692,"lng":77.27301},{"code":"MOGA","name":"Moga","city":"Moga","country":"India","lat":30.8173,"lng":75.16847},{"code":"SIOB","name":"Samakhiali Jn","city":"Samakhiali Jn","country":"India","lat":23.30982,"lng":70.50339},{"code":"RDK","name":"Rasheedpura Khori","city":"Rasheedpura Khori","country":"India","lat":27.71379,"lng":75.08712},{"code":"PVD","name":"Peddavadiapudi","city":"Peddavadiapudi","country":"India","lat":16.41421,"lng":80.61265},{"code":"YLM","name":"Ellamanchili","city":"Ellamanchili","country":"India","lat":17.55365,"lng":82.85262},{"code":"JLD","name":"Jarwal Road","city":"Jarwal Road","country":"India","lat":27.12039,"lng":81.54041},{"code":"BRJN","name":"Brajrajnagar","city":"Brajrajnagar","country":"India","lat":21.82272,"lng":83.92365},{"code":"CLJ","name":"Colonelganj","city":"Colonelganj","country":"India","lat":27.1377,"lng":81.69418},{"code":"KTHL","name":"Kathola","city":"Kathola","country":"India","lat":27.14656,"lng":81.85566},{"code":"MND","name":"Munderwa","city":"Munderwa","country":"India","lat":26.77644,"lng":82.90337},{"code":"SNSI","name":"Sainagar Shirdi","city":"Sainagar Shirdi","country":"India","lat":19.78079,"lng":74.48069},{"code":"DLJ","name":"Dhola Jn","city":"Dhola Jn","country":"India","lat":21.82255,"lng":71.73827},{"code":"PGW","name":"Phagwara Jn","city":"Phagwara Jn","country":"India","lat":31.21756,"lng":75.7655},{"code":"JUP","name":"Jhunpa","city":"Jhunpa","country":"India","lat":28.77745,"lng":75.52155},{"code":"JSG","name":"Jharsuguda Jn","city":"Jharsuguda Jn","country":"India","lat":21.86227,"lng":84.01743},{"code":"KYW","name":"Karchhue","city":"Karchhue","country":"India","lat":26.23112,"lng":84.20715},{"code":"MHRN","name":"Mahendranath","city":"Mahendranath","country":"India","lat":26.00074,"lng":84.50991},{"code":"TKVR","name":"Tappa Khajuriay","city":"Tappa Khajuriay","country":"India","lat":25.8074,"lng":84.68889},{"code":"DPI","name":"Doddampatti","city":"Doddampatti","country":"India","lat":12.18135,"lng":78.42225},{"code":"AQG","name":"Ashapura Gomat","city":"Ashapura Gomat","country":"India","lat":26.95023,"lng":71.89266},{"code":"NEA","name":"Neykkarapatti","city":"Neykkarapatti","country":"India","lat":11.61277,"lng":78.0967},{"code":"GRL","name":"Goraul","city":"Goraul","country":"India","lat":25.93105,"lng":85.31848},{"code":"KHI","name":"Kurhani","city":"Kurhani","country":"India","lat":25.97963,"lng":85.33929},{"code":"VNJ","name":"Tiruppur Vanjipalayam","city":"Tiruppur Vanjipalayam","country":"India","lat":11.11779,"lng":77.2658},{"code":"CBF","name":"Coimbatore North","city":"Coimbatore North","country":"India","lat":11.01994,"lng":76.9543},{"code":"UMB","name":"Ambala Cant Jn","city":"Ambala Cant Jn","country":"India","lat":30.33892,"lng":76.82697},{"code":"SRO","name":"Sirathu","city":"Sirathu","country":"India","lat":25.65064,"lng":81.31786},{"code":"SJT","name":"Shujaatpur","city":"Shujaatpur","country":"India","lat":25.60561,"lng":81.40193},{"code":"BDNP","name":"Bidanpur","city":"Bidanpur","country":"India","lat":25.58502,"lng":81.44202},{"code":"MTPC","name":"Motipura Chauki","city":"Motipura Chauki","country":"India","lat":24.60934,"lng":77.0483},{"code":"HTZ","name":"Hathidah Jn","city":"Hathidah Jn","country":"India","lat":25.36703,"lng":85.98783},{"code":"DDNI","name":"Dudhnoi","city":"Dudhnoi","country":"India","lat":26.00146,"lng":90.76188},{"code":"RDE","name":"Rundhi","city":"Rundhi","country":"India","lat":28.06775,"lng":77.35099},{"code":"IJ","name":"Itaunja","city":"Itaunja","country":"India","lat":27.08107,"lng":80.89123},{"code":"RMX","name":"Ramsar","city":"Ramsar","country":"India","lat":25.72225,"lng":70.86608},{"code":"PBE","name":"Pilibhit Jn","city":"Pilibhit Jn","country":"India","lat":28.61498,"lng":79.81395},{"code":"RMB","name":"Rampura Beri","city":"Rampura Beri","country":"India","lat":28.53013,"lng":75.64548},{"code":"MGS","name":"Mughal Sarai Jn","city":"Mughal Sarai Jn","country":"India","lat":25.27815,"lng":83.11925},{"code":"RSWT","name":"Ramgarh Shekhawati","city":"Ramgarh Shekhawati","country":"India","lat":28.1694,"lng":74.99305},{"code":"BKNA","name":"Bakaina Halt","city":"Bakaina Halt","country":"India","lat":29.0358,"lng":78.27473},{"code":"HBD","name":"Hoshangabad","city":"Hoshangabad","country":"India","lat":22.75274,"lng":77.71559},{"code":"ANA","name":"Aslana","city":"Aslana","country":"India","lat":23.86052,"lng":79.31949},{"code":"BNI","name":"Budni","city":"Budni","country":"India","lat":22.78711,"lng":77.68128},{"code":"DMGN","name":"Dhamalgaon","city":"Dhamalgaon","country":"India","lat":27.32557,"lng":94.85657},{"code":"LKPL","name":"Lakdikapul","city":"Lakdikapul","country":"India","lat":17.40405,"lng":78.46353},{"code":"BRUD","name":"Barud","city":"Barud","country":"India","lat":22.05214,"lng":76.81409},{"code":"DVL","name":"Devlali","city":"Devlali","country":"India","lat":19.89751,"lng":73.83729},{"code":"REWA","name":"Rewa","city":"Rewa","country":"India","lat":24.53712,"lng":81.25062},{"code":"DOK","name":"Dholka","city":"Dholka","country":"India","lat":22.73198,"lng":72.43384},{"code":"NDR","name":"Nandesari","city":"Nandesari","country":"India","lat":22.41833,"lng":73.09527},{"code":"MYG","name":"Miyagam Karjan","city":"Miyagam Karjan","country":"India","lat":22.05072,"lng":73.12035},{"code":"MBA","name":"Mahoba","city":"Mahoba","country":"India","lat":25.30691,"lng":79.84908},{"code":"JGZ","name":"Jamgaon","city":"Jamgaon","country":"India","lat":22.41843,"lng":80.19894},{"code":"BHKH","name":"Baghoi Kusa","city":"Baghoi Kusa","country":"India","lat":24.8399,"lng":84.46243},{"code":"NOLI","name":"Noli","city":"Noli","country":"India","lat":28.74657,"lng":77.31077},{"code":"SUJR","name":"Sujra","city":"Sujra","country":"India","lat":29.01273,"lng":77.26134},{"code":"AMOD","name":"Amod","city":"Amod","country":"India","lat":21.99079,"lng":72.86546},{"code":"LKD","name":"Lakodara","city":"Lakodara","country":"India","lat":21.99187,"lng":73.09899},{"code":"VKL","name":"Vankal","city":"Vankal","country":"India","lat":21.43967,"lng":73.23137},{"code":"BY","name":"Byculla","city":"Byculla","country":"India","lat":18.97695,"lng":72.83321},{"code":"BNR","name":"Bhagwanpur","city":"Bhagwanpur","country":"India","lat":25.85832,"lng":85.30109},{"code":"BLMR","name":"Bhalukmara","city":"Bhalukmara","country":"India","lat":26.68553,"lng":94.14371},{"code":"ANJ","name":"Anjangaon","city":"Anjangaon","country":"India","lat":21.1632,"lng":77.31897},{"code":"DEB","name":"Debagram","city":"Debagram","country":"India","lat":23.68528,"lng":88.30681},{"code":"ELP","name":"Achalpur","city":"Achalpur","country":"India","lat":21.2776,"lng":77.51926},{"code":"BTY","name":"Bethuadahari","city":"Bethuadahari","country":"India","lat":23.61028,"lng":88.3846},{"code":"PCU","name":"Putlacheruvu","city":"Putlacheruvu","country":"India","lat":16.48482,"lng":81.1124},{"code":"BNPT","name":"Bennipatti Pirapur","city":"Bennipatti Pirapur","country":"India","lat":25.89295,"lng":85.30905},{"code":"JM","name":"Jalamb Jn","city":"Jalamb Jn","country":"India","lat":20.81301,"lng":76.57324},{"code":"GPJ","name":"Gorapur","city":"Gorapur","country":"India","lat":18.34694,"lng":82.79406},{"code":"ABEO","name":"Pattaravakkam","city":"Pattaravakkam","country":"India","lat":13.1145,"lng":80.16618},{"code":"SEG","name":"Shegaon","city":"Shegaon","country":"India","lat":20.80172,"lng":76.69033},{"code":"GDU","name":"Gudru Halt","city":"Gudru Halt","country":"India","lat":22.27189,"lng":80.11634},{"code":"BGNA","name":"Balgona","city":"Balgona","country":"India","lat":23.45805,"lng":87.95046},{"code":"KLNP","name":"Kalinarayanpur","city":"Kalinarayanpur","country":"India","lat":23.20651,"lng":88.57322},{"code":"NGZ","name":"S K Nagjihari","city":"S K Nagjihari","country":"India","lat":20.76164,"lng":76.75535},{"code":"PS","name":"Paras","city":"Paras","country":"India","lat":20.72452,"lng":76.81587},{"code":"BRDB","name":"Barda","city":"Barda","country":"India","lat":22.15296,"lng":88.08753},{"code":"GAO","name":"Gaigaon","city":"Gaigaon","country":"India","lat":20.72068,"lng":76.89009},{"code":"RRL","name":"Rewral","city":"Rewral","country":"India","lat":21.26112,"lng":79.4681},{"code":"KHAT","name":"Khat","city":"Khat","country":"India","lat":21.24224,"lng":79.55079},{"code":"BRD","name":"Bhandara Road","city":"Bhandara Road","country":"India","lat":21.23851,"lng":79.64752},{"code":"KOKA","name":"Koka","city":"Koka","country":"India","lat":21.26302,"lng":79.71241},{"code":"DAO","name":"Daghora","city":"Daghora","country":"India","lat":21.85754,"lng":83.67809},{"code":"HGR","name":"Hemagiri","city":"Hemagiri","country":"India","lat":21.8765,"lng":83.74281},{"code":"NIR","name":"Nainpur Junction","city":"Nainpur Junction","country":"India","lat":22.42568,"lng":80.10885},{"code":"NCH","name":"Nakachari","city":"Nakachari","country":"India","lat":26.70813,"lng":94.39391},{"code":"APDJ","name":"Alipur Duar Jn","city":"Alipur Duar Jn","country":"India","lat":26.52328,"lng":89.53405},{"code":"BRE","name":"Bharwari","city":"Bharwari","country":"India","lat":25.55919,"lng":81.49187},{"code":"JTK","name":"Jhitkia","city":"Jhitkia","country":"India","lat":25.62613,"lng":88.05297},{"code":"MNJ","name":"Manoharganj","city":"Manoharganj","country":"India","lat":25.52499,"lng":81.55907},{"code":"SYWN","name":"Saiyid Sarawan","city":"Saiyid Sarawan","country":"India","lat":25.49498,"lng":81.61379},{"code":"MRE","name":"Manauri","city":"Manauri","country":"India","lat":25.47017,"lng":81.66249},{"code":"BMU","name":"Bamhrauli","city":"Bamhrauli","country":"India","lat":25.44494,"lng":81.74164},{"code":"SFG","name":"Subedarganj","city":"Subedarganj","country":"India","lat":25.43988,"lng":81.7899},{"code":"KLX","name":"Kolakalur","city":"Kolakalur","country":"India","lat":16.29519,"lng":80.62752},{"code":"CLVR","name":"Chiluvur","city":"Chiluvur","country":"India","lat":16.37956,"lng":80.61691},{"code":"KVR","name":"Kovvur","city":"Kovvur","country":"India","lat":17.00708,"lng":81.7265},{"code":"GVN","name":"Godavari","city":"Godavari","country":"India","lat":17.00771,"lng":81.77083},{"code":"KJKD","name":"Kanjikode","city":"Kanjikode","country":"India","lat":10.80092,"lng":76.75532},{"code":"SNKR","name":"Sanka","city":"Sanka","country":"India","lat":23.52693,"lng":86.61616},{"code":"VNK","name":"Binaiki","city":"Binaiki","country":"India","lat":22.72003,"lng":79.90242},{"code":"GCN","name":"Gocharan","city":"Gocharan","country":"India","lat":22.27774,"lng":88.45837},{"code":"SEY","name":"Seoni","city":"Seoni","country":"India","lat":22.07543,"lng":79.54577},{"code":"SDMD","name":"Sudamdih","city":"Sudamdih","country":"India","lat":23.65448,"lng":86.44032},{"code":"BJU","name":"Barauni Jn","city":"Barauni Jn","country":"India","lat":25.46177,"lng":85.98875},{"code":"DMO","name":"Damoh","city":"Damoh","country":"India","lat":23.83669,"lng":79.43225},{"code":"ADD","name":"Adas Road","city":"Adas Road","country":"India","lat":22.48663,"lng":73.03469},{"code":"CLC","name":"Chalala","city":"Chalala","country":"India","lat":21.41556,"lng":71.16224},{"code":"RNO","name":"Ranoli","city":"Ranoli","country":"India","lat":22.40525,"lng":73.11227},{"code":"HP","name":"Haripur","city":"Haripur","country":"India","lat":26.0124,"lng":74.02493},{"code":"KUGT","name":"Kumarghat","city":"Kumarghat","country":"India","lat":24.15063,"lng":92.03483},{"code":"AWB","name":"Aurangabad","city":"Aurangabad","country":"India","lat":19.85928,"lng":75.31065},{"code":"BNL","name":"Bevinahalu","city":"Bevinahalu","country":"India","lat":15.16697,"lng":77.21299},{"code":"SMNH","name":"Somnath","city":"Somnath","country":"India","lat":20.89613,"lng":70.40825},{"code":"CUPJ","name":"Cuddalore Port","city":"Cuddalore Port","country":"India","lat":11.71512,"lng":79.76629},{"code":"PLJ","name":"Palej","city":"Palej","country":"India","lat":21.92158,"lng":73.07239},{"code":"GOLE","name":"Gole","city":"Gole","country":"India","lat":25.89194,"lng":72.00004},{"code":"TRO","name":"Tirora","city":"Tirora","country":"India","lat":21.41504,"lng":79.91803},{"code":"JMG","name":"Jamga","city":"Jamga","country":"India","lat":21.87497,"lng":83.56484},{"code":"AHLR","name":"Ahalyapur","city":"Ahalyapur","country":"India","lat":26.46838,"lng":83.82484},{"code":"TEL","name":"Tenali Jn","city":"Tenali Jn","country":"India","lat":16.24241,"lng":80.64041},{"code":"TAT","name":"Tummanamgutta","city":"Tummanamgutta","country":"India","lat":13.70741,"lng":78.37926},{"code":"CU","name":"Chagallu","city":"Chagallu","country":"India","lat":16.96508,"lng":81.69056},{"code":"PSDA","name":"Pasivedala","city":"Pasivedala","country":"India","lat":16.99331,"lng":81.70094},{"code":"MBGA","name":"Marwar Bagra","city":"Marwar Bagra","country":"India","lat":25.20869,"lng":72.59376},{"code":"JNE","name":"Janiyana","city":"Janiyana","country":"India","lat":25.82764,"lng":72.33628},{"code":"SMR","name":"Samdhari Jn","city":"Samdhari Jn","country":"India","lat":25.8372,"lng":72.57301},{"code":"SUT","name":"Sutlana","city":"Sutlana","country":"India","lat":25.97078,"lng":72.95141},{"code":"PBR","name":"Porbandar","city":"Porbandar","country":"India","lat":21.6436,"lng":69.61551},{"code":"CKVD","name":"Chikkandawadi","city":"Chikkandawadi","country":"India","lat":14.13792,"lng":76.20257},{"code":"BHG","name":"Bhaton Ki Gali","city":"Bhaton Ki Gali","country":"India","lat":27.10565,"lng":75.71292},{"code":"HMO","name":"Hanumangarh Town","city":"Hanumangarh Town","country":"India","lat":29.57422,"lng":74.3312},{"code":"SANR","name":"Sardarnagar","city":"Sardarnagar","country":"India","lat":26.70086,"lng":83.49405},{"code":"GRD","name":"Giridih","city":"Giridih","country":"India","lat":24.18226,"lng":86.31465},{"code":"CC","name":"Chauri Chaura","city":"Chauri Chaura","country":"India","lat":26.67388,"lng":83.54589},{"code":"KMPT","name":"Komatipalli","city":"Komatipalli","country":"India","lat":18.02355,"lng":79.51589},{"code":"HSP","name":"Hasanparthi Rd","city":"Hasanparthi Rd","country":"India","lat":18.07826,"lng":79.50185},{"code":"GGY","name":"Gagariya","city":"Gagariya","country":"India","lat":25.74108,"lng":70.73488},{"code":"NNPR","name":"Nonapar","city":"Nonapar","country":"India","lat":26.35321,"lng":83.96979},{"code":"MW","name":"Mairwa","city":"Mairwa","country":"India","lat":26.24031,"lng":84.15198},{"code":"KUY","name":"Tiruppur Kulipalayam","city":"Tiruppur Kulipalayam","country":"India","lat":11.14403,"lng":77.38931},{"code":"PLL","name":"Parli","city":"Parli","country":"India","lat":10.80042,"lng":76.55942},{"code":"AGTL","name":"Agartala","city":"Agartala","country":"India","lat":23.79242,"lng":91.27848},{"code":"MNY","name":"Mankarai","city":"Mankarai","country":"India","lat":10.77153,"lng":76.50023},{"code":"LDY","name":"Lakkiti","city":"Lakkiti","country":"India","lat":10.75322,"lng":76.43447},{"code":"PLPM","name":"Palappuram","city":"Palappuram","country":"India","lat":10.75252,"lng":76.39839},{"code":"OTP","name":"Ottappalam","city":"Ottappalam","country":"India","lat":10.77005,"lng":76.37799},{"code":"MNUR","name":"Mannanur","city":"Mannanur","country":"India","lat":10.74932,"lng":76.32356},{"code":"ZRDE","name":"Jiradei","city":"Jiradei","country":"India","lat":26.22082,"lng":84.25614},{"code":"SV","name":"Siwan Jn","city":"Siwan Jn","country":"India","lat":26.21072,"lng":84.35927},{"code":"PCK","name":"Pachrukhi","city":"Pachrukhi","country":"India","lat":26.16263,"lng":84.41567},{"code":"DDA","name":"Duraundha Jn","city":"Duraundha Jn","country":"India","lat":26.08697,"lng":84.45895},{"code":"CW","name":"Chainwa","city":"Chainwa","country":"India","lat":26.02212,"lng":84.4965},{"code":"POK","name":"Pokran","city":"Pokran","country":"India","lat":26.93057,"lng":71.92313},{"code":"OCH","name":"Odhaniya Chacha","city":"Odhaniya Chacha","country":"India","lat":26.97285,"lng":71.71869},{"code":"EKMA","name":"Ekma","city":"Ekma","country":"India","lat":25.9671,"lng":84.53637},{"code":"DDP","name":"Daudpur","city":"Daudpur","country":"India","lat":25.90709,"lng":84.59143},{"code":"KPS","name":"Kopa Samhota","city":"Kopa Samhota","country":"India","lat":25.85187,"lng":84.65281},{"code":"BTHL","name":"Bithauli","city":"Bithauli","country":"India","lat":25.81707,"lng":85.29179},{"code":"GB","name":"Gauri Bazar","city":"Gauri Bazar","country":"India","lat":26.59493,"lng":83.6678},{"code":"BALR","name":"Baitalpur","city":"Baitalpur","country":"India","lat":26.55266,"lng":83.73856},{"code":"DEOS","name":"Deoria Sadar","city":"Deoria Sadar","country":"India","lat":26.50768,"lng":83.78196},{"code":"NRA","name":"Nunkhar","city":"Nunkhar","country":"India","lat":26.42548,"lng":83.88018},{"code":"BND","name":"Bhandup","city":"Bhandup","country":"India","lat":19.14201,"lng":72.93724},{"code":"ASR","name":"Amritsar Jn","city":"Amritsar Jn","country":"India","lat":31.63151,"lng":74.85803},{"code":"MUC","name":"Mullurkara","city":"Mullurkara","country":"India","lat":10.70584,"lng":76.27142},{"code":"WKI","name":"Wadakancheri","city":"Wadakancheri","country":"India","lat":10.64896,"lng":76.23704},{"code":"SOG","name":"Suratgarh Jn","city":"Suratgarh Jn","country":"India","lat":29.32415,"lng":73.90725},{"code":"SNV","name":"Sondad","city":"Sondad","country":"India","lat":21.07985,"lng":80.09415},{"code":"QMRS","name":"Kayamsar","city":"Kayamsar","country":"India","lat":28.12558,"lng":75.00056},{"code":"AYB","name":"Aliyabad","city":"Aliyabad","country":"India","lat":16.87827,"lng":75.75831},{"code":"MBF","name":"Munabao","city":"Munabao","country":"India","lat":25.74261,"lng":70.27654},{"code":"CLDR","name":"Chilikidara","city":"Chilikidara","country":"India","lat":21.24302,"lng":85.82711},{"code":"KLYT","name":"Kolayat","city":"Kolayat","country":"India","lat":27.83532,"lng":72.95507},{"code":"CLD","name":"Chalsa Jn","city":"Chalsa Jn","country":"India","lat":26.88222,"lng":88.79821},{"code":"CRX","name":"Carron","city":"Carron","country":"India","lat":26.88028,"lng":88.9704},{"code":"ETF","name":"Itarsi F Cabin","city":"Itarsi F Cabin","country":"India","lat":22.61521,"lng":77.77486},{"code":"CNPI","name":"Chandanpahari","city":"Chandanpahari","country":"India","lat":24.40422,"lng":86.95308},{"code":"MIG","name":"Midghat","city":"Midghat","country":"India","lat":22.82814,"lng":77.64753},{"code":"BNU","name":"Bandakpur","city":"Bandakpur","country":"India","lat":23.84821,"lng":79.57596},{"code":"COD","name":"Chhota Gudha","city":"Chhota Gudha","country":"India","lat":27.2938,"lng":75.59951},{"code":"CHQ","name":"Choka","city":"Choka","country":"India","lat":22.86433,"lng":77.63897},{"code":"MB","name":"Moradabad","city":"Moradabad","country":"India","lat":28.83162,"lng":78.7658},{"code":"IRA","name":"Israna","city":"Israna","country":"India","lat":29.29138,"lng":76.85286},{"code":"KRCA","name":"Karachiya Yard","city":"Karachiya Yard","country":"India","lat":22.38005,"lng":73.13298},{"code":"BJW","name":"Bajva","city":"Bajva","country":"India","lat":22.36622,"lng":73.14313},{"code":"CLN","name":"Kollidam","city":"Kollidam","country":"India","lat":11.33271,"lng":79.71835},{"code":"CNA","name":"Chanderiya","city":"Chanderiya","country":"India","lat":24.93956,"lng":74.62998},{"code":"CRC","name":"Charkhari Road","city":"Charkhari Road","country":"India","lat":25.30756,"lng":79.74565},{"code":"BTT","name":"Bhatni Jn","city":"Bhatni Jn","country":"India","lat":26.38126,"lng":83.93404},{"code":"CSZ","name":"Cossimbazar","city":"Cossimbazar","country":"India","lat":24.12226,"lng":88.2669},{"code":"VRE","name":"Varediya","city":"Varediya","country":"India","lat":21.85838,"lng":73.04898},{"code":"NIU","name":"Nabipur","city":"Nabipur","country":"India","lat":21.80754,"lng":73.03059},{"code":"CVJ","name":"Chavaj","city":"Chavaj","country":"India","lat":21.75313,"lng":73.01049},{"code":"AKV","name":"Ankleshwar Jn","city":"Ankleshwar Jn","country":"India","lat":21.62389,"lng":73.00063},{"code":"CNE","name":"Chandranathpur","city":"Chandranathpur","country":"India","lat":24.98496,"lng":92.71666},{"code":"PAO","name":"Panoli","city":"Panoli","country":"India","lat":21.5352,"lng":72.97837},{"code":"CNL","name":"Chandawal","city":"Chandawal","country":"India","lat":25.94654,"lng":73.86881},{"code":"BFY","name":"Bhesana","city":"Bhesana","country":"India","lat":25.82438,"lng":73.71809},{"code":"HAT","name":"Hathuran","city":"Hathuran","country":"India","lat":21.50109,"lng":72.96951},{"code":"COL","name":"Coromandel","city":"Coromandel","country":"India","lat":12.97518,"lng":78.25728},{"code":"KDSD","name":"Kudsad","city":"Kudsad","country":"India","lat":21.37682,"lng":72.91648},{"code":"SYN","name":"Sayan","city":"Sayan","country":"India","lat":21.3172,"lng":72.89029},{"code":"MQP","name":"Makrandpur","city":"Makrandpur","country":"India","lat":28.21341,"lng":79.2901},{"code":"GTX","name":"Gothangam","city":"Gothangam","country":"India","lat":21.29404,"lng":72.8801},{"code":"MGK","name":"Mulangunnathukavu","city":"Mulangunnathukavu","country":"India","lat":10.59694,"lng":76.20781},{"code":"CNKP","name":"Chanakyapuri","city":"Chanakyapuri","country":"India","lat":28.59191,"lng":77.172},{"code":"URN","name":"Utran","city":"Utran","country":"India","lat":21.2326,"lng":72.8548},{"code":"ST","name":"Surat","city":"Surat","country":"India","lat":21.20657,"lng":72.84079},{"code":"UDN","name":"Udhna Jn","city":"Udhna Jn","country":"India","lat":21.17116,"lng":72.85146},{"code":"VRU","name":"Valiveru","city":"Valiveru","country":"India","lat":16.18893,"lng":80.60546},{"code":"MRPL","name":"Marampalli","city":"Marampalli","country":"India","lat":16.84392,"lng":81.63387},{"code":"NDD","name":"Nidadavolu Jn","city":"Nidadavolu Jn","country":"India","lat":16.8983,"lng":81.6755},{"code":"GDM","name":"Gudma","city":"Gudma","country":"India","lat":21.41613,"lng":80.28768},{"code":"BEF","name":"Bhupdeopur","city":"Bhupdeopur","country":"India","lat":21.97504,"lng":83.25998},{"code":"RIG","name":"Raigarh","city":"Raigarh","country":"India","lat":21.89129,"lng":83.39067},{"code":"KRL","name":"Kotarlia","city":"Kotarlia","country":"India","lat":21.88318,"lng":83.48224},{"code":"CTND","name":"Chettinad","city":"Chettinad","country":"India","lat":10.16061,"lng":78.77592},{"code":"SEPR","name":"Sherpur","city":"Sherpur","country":"India","lat":28.91936,"lng":78.25287},{"code":"NVS","name":"Navsari","city":"Navsari","country":"India","lat":20.94685,"lng":72.91429},{"code":"JBD","name":"Jalalabad","city":"Jalalabad","country":"India","lat":30.60775,"lng":74.26845},{"code":"DDM","name":"Dam Dim","city":"Dam Dim","country":"India","lat":26.85924,"lng":88.67133},{"code":"COE","name":"Chitrod","city":"Chitrod","country":"India","lat":23.41787,"lng":70.65536},{"code":"COM","name":"Chomun Samod","city":"Chomun Samod","country":"India","lat":27.15822,"lng":75.70272},{"code":"DKT","name":"Dhulkot","city":"Dhulkot","country":"India","lat":30.39569,"lng":76.78753},{"code":"KUW","name":"Kanwar","city":"Kanwar","country":"India","lat":25.70365,"lng":81.21464},{"code":"CDMR","name":"Chandauli Mjhwr","city":"Chandauli Mjhwr","country":"India","lat":25.26109,"lng":83.26772},{"code":"KGA","name":"Khaga","city":"Khaga","country":"India","lat":25.76185,"lng":81.10266},{"code":"KTCE","name":"Katoghan","city":"Katoghan","country":"India","lat":25.73004,"lng":81.16561},{"code":"ASCE","name":"Athsarai","city":"Athsarai","country":"India","lat":25.67873,"lng":81.26203},{"code":"CRLM","name":"Carmelaram","city":"Carmelaram","country":"India","lat":12.90763,"lng":77.70601},{"code":"CNR","name":"Chandar","city":"Chandar","country":"India","lat":15.26483,"lng":74.04779},{"code":"CMDP","name":"Chimidipalli","city":"Chimidipalli","country":"India","lat":18.26276,"lng":83.07686},{"code":"BDL","name":"Vindhyachal","city":"Vindhyachal","country":"India","lat":25.16077,"lng":82.50202},{"code":"TSA","name":"Tisua","city":"Tisua","country":"India","lat":28.13658,"lng":79.58629},{"code":"TAS","name":"Thasra","city":"Thasra","country":"India","lat":22.79777,"lng":73.22168},{"code":"GHT","name":"Ghaghara Ghat","city":"Ghaghara Ghat","country":"India","lat":27.10268,"lng":81.50331},{"code":"BV","name":"Babhnan","city":"Babhnan","country":"India","lat":26.93853,"lng":82.50013},{"code":"CLW","name":"Chilwariya","city":"Chilwariya","country":"India","lat":27.487,"lng":81.69873},{"code":"GAUR","name":"Gaur","city":"Gaur","country":"India","lat":26.91341,"lng":82.56116},{"code":"TH","name":"Tinich","city":"Tinich","country":"India","lat":26.88228,"lng":82.63971},{"code":"BHTR","name":"Bhatpar Rani","city":"Bhatpar Rani","country":"India","lat":26.31048,"lng":84.0331},{"code":"TUR","name":"Turki","city":"Turki","country":"India","lat":26.03443,"lng":85.35471},{"code":"RD","name":"Ram Dayalu Nagar","city":"Ram Dayalu Nagar","country":"India","lat":26.09737,"lng":85.3836},{"code":"BTO","name":"Bhitaura","city":"Bhitaura","country":"India","lat":28.46995,"lng":79.30651},{"code":"PKRA","name":"Parsa Khera","city":"Parsa Khera","country":"India","lat":28.43337,"lng":79.34185},{"code":"CHTI","name":"Chaneti","city":"Chaneti","country":"India","lat":28.3088,"lng":79.42917},{"code":"BLPU","name":"Bilpur","city":"Bilpur","country":"India","lat":28.08367,"lng":79.62578},{"code":"MK","name":"Miranpur Katra","city":"Miranpur Katra","country":"India","lat":28.03708,"lng":79.67481},{"code":"MILA","name":"Milakpur Halt","city":"Milakpur Halt","country":"India","lat":27.98826,"lng":79.71796},{"code":"TLH","name":"Tilhar","city":"Tilhar","country":"India","lat":27.97298,"lng":79.74178},{"code":"CQL","name":"Chirakkal","city":"Chirakkal","country":"India","lat":11.91105,"lng":75.3537},{"code":"PNQ","name":"Punkunnam","city":"Punkunnam","country":"India","lat":10.53505,"lng":76.20943},{"code":"TCR","name":"Thrisur","city":"Thrisur","country":"India","lat":10.51479,"lng":76.20792},{"code":"CMNR","name":"Chamarajanagar","city":"Chamarajanagar","country":"India","lat":11.93489,"lng":76.93281},{"code":"CMJ","name":"Chamarajapuram","city":"Chamarajapuram","country":"India","lat":12.29844,"lng":76.63786},{"code":"BKA","name":"Barkhera","city":"Barkhera","country":"India","lat":22.91736,"lng":77.64965},{"code":"ODG","name":"Obaidulla Ganj","city":"Obaidulla Ganj","country":"India","lat":22.99491,"lng":77.5873},{"code":"ACL","name":"Ancheli","city":"Ancheli","country":"India","lat":20.84517,"lng":72.94498},{"code":"CVR","name":"Chorvad Road","city":"Chorvad Road","country":"India","lat":21.0552,"lng":70.29073},{"code":"CTH","name":"Chikalthana","city":"Chikalthana","country":"India","lat":19.85957,"lng":75.40285},{"code":"BTKD","name":"Bharatkund","city":"Bharatkund","country":"India","lat":26.6361,"lng":82.12739},{"code":"DHW","name":"Dhariwal","city":"Dhariwal","country":"India","lat":31.94911,"lng":75.32156},{"code":"SAI","name":"Sarai","city":"Sarai","country":"India","lat":25.77996,"lng":85.27661},{"code":"CPE","name":"Chandiposi","city":"Chandiposi","country":"India","lat":22.06868,"lng":84.91599},{"code":"CRU","name":"Chudawa","city":"Chudawa","country":"India","lat":19.18033,"lng":77.11693},{"code":"DBB","name":"Dhubri","city":"Dhubri","country":"India","lat":26.02314,"lng":89.97795},{"code":"PNP","name":"Panipat Jn","city":"Panipat Jn","country":"India","lat":29.38895,"lng":76.96379},{"code":"CPS","name":"Chandpur Siau Halt","city":"Chandpur Siau Halt","country":"India","lat":29.13201,"lng":78.27585},{"code":"CX","name":"Chanol","city":"Chanol","country":"India","lat":22.42792,"lng":70.53884},{"code":"CSR","name":"Chak Sikandar","city":"Chak Sikandar","country":"India","lat":25.67672,"lng":85.36525},{"code":"CRQ","name":"Charpokhari Halt","city":"Charpokhari Halt","country":"India","lat":25.36152,"lng":84.4876},{"code":"VNA","name":"Varangaon","city":"Varangaon","country":"India","lat":21.00971,"lng":75.90066},{"code":"DAG","name":"Dhang","city":"Dhang","country":"India","lat":26.7174,"lng":85.3533},{"code":"CRW","name":"Charaud","city":"Charaud","country":"India","lat":29.00946,"lng":75.64666},{"code":"BTL","name":"Bortalao","city":"Bortalao","country":"India","lat":21.2183,"lng":80.62621},{"code":"KHS","name":"Kharsia","city":"Kharsia","country":"India","lat":21.99178,"lng":83.10241},{"code":"ROB","name":"Robertson","city":"Robertson","country":"India","lat":21.98874,"lng":83.18251},{"code":"CPK","name":"Chaparmukh Jn","city":"Chaparmukh Jn","country":"India","lat":26.20227,"lng":92.51172},{"code":"CTW","name":"Chhintanwala","city":"Chhintanwala","country":"India","lat":30.36596,"lng":76.01423},{"code":"CTA","name":"Chitradurg","city":"Chitradurg","country":"India","lat":14.23115,"lng":76.38643},{"code":"MDKU","name":"Modukuru","city":"Modukuru","country":"India","lat":16.12499,"lng":80.58381},{"code":"TSR","name":"Tsunduru","city":"Tsunduru","country":"India","lat":16.1575,"lng":80.58649},{"code":"NBM","name":"Navabpalem","city":"Navabpalem","country":"India","lat":16.83161,"lng":81.6067},{"code":"NMBR","name":"N Mayurbhanj Road","city":"N Mayurbhanj Road","country":"India","lat":21.6669,"lng":87.03872},{"code":"BTS","name":"Basta","city":"Basta","country":"India","lat":21.70292,"lng":87.06378},{"code":"CTD","name":"Chhota Udepur","city":"Chhota Udepur","country":"India","lat":22.31479,"lng":74.01429},{"code":"DBY","name":"Digboi","city":"Digboi","country":"India","lat":27.38348,"lng":95.61698},{"code":"CWI","name":"Chondi","city":"Chondi","country":"India","lat":19.43062,"lng":77.15567},{"code":"CSDR","name":"Channasandra","city":"Channasandra","country":"India","lat":13.01094,"lng":77.66297},{"code":"PGT","name":"Palakkad","city":"Palakkad","country":"India","lat":10.80209,"lng":76.64193},{"code":"MNHA","name":"Mindha","city":"Mindha","country":"India","lat":27.11206,"lng":75.33241},{"code":"DBO","name":"Dabhoda","city":"Dabhoda","country":"India","lat":23.16833,"lng":72.74804},{"code":"DABN","name":"Dhaban","city":"Dhaban","country":"India","lat":29.86,"lng":74.54288},{"code":"DBI","name":"Dabli Rathan","city":"Dabli Rathan","country":"India","lat":29.54242,"lng":74.19093},{"code":"SID","name":"Siddhpur","city":"Siddhpur","country":"India","lat":23.91807,"lng":72.36796},{"code":"ARGD","name":"Arigada","city":"Arigada","country":"India","lat":23.64346,"lng":85.46648},{"code":"CTJ","name":"Chhataini","city":"Chhataini","country":"India","lat":23.99409,"lng":81.28732},{"code":"KTKD","name":"Katangi Khurd","city":"Katangi Khurd","country":"India","lat":23.77587,"lng":80.48673},{"code":"CRL","name":"Choral","city":"Choral","country":"India","lat":22.45068,"lng":75.94413},{"code":"ABSA","name":"Ambassa","city":"Ambassa","country":"India","lat":23.93051,"lng":91.86078},{"code":"DBKA","name":"Dabka","city":"Dabka","country":"India","lat":21.36135,"lng":76.72081},{"code":"CQR","name":"Champapukur","city":"Champapukur","country":"India","lat":22.65663,"lng":88.80796},{"code":"NDAZ","name":"Naya Azadpur","city":"Naya Azadpur","country":"India","lat":28.71456,"lng":77.16688},{"code":"ANDI","name":"Adarsh Nagar Delhi","city":"Adarsh Nagar Delhi","country":"India","lat":28.71421,"lng":77.16671},{"code":"CUR","name":"Churu","city":"Churu","country":"India","lat":28.28828,"lng":74.9662},{"code":"BHD","name":"Badli","city":"Badli","country":"India","lat":28.7468,"lng":77.13774},{"code":"KHKN","name":"Khera Kalan","city":"Khera Kalan","country":"India","lat":28.76972,"lng":77.11584},{"code":"HUK","name":"Holambi Kalan","city":"Holambi Kalan","country":"India","lat":28.80119,"lng":77.10233},{"code":"NUR","name":"Narela","city":"Narela","country":"India","lat":28.84689,"lng":77.08573},{"code":"CWA","name":"Chhindwara Junction","city":"Chhindwara Junction","country":"India","lat":22.0582,"lng":78.95321},{"code":"RDDE","name":"Rathdhana","city":"Rathdhana","country":"India","lat":28.90413,"lng":77.05915},{"code":"CTPE","name":"Chandanattop Halt","city":"Chandanattop Halt","country":"India","lat":8.93248,"lng":76.64532},{"code":"HNN","name":"Harana Kalan","city":"Harana Kalan","country":"India","lat":28.94543,"lng":77.03914},{"code":"SNP","name":"Sonipat","city":"Sonipat","country":"India","lat":28.98942,"lng":77.01734},{"code":"SLKN","name":"Sandal Kalan","city":"Sandal Kalan","country":"India","lat":29.06343,"lng":77.01259},{"code":"RUG","name":"Rajlu Garhi","city":"Rajlu Garhi","country":"India","lat":29.09074,"lng":77.01211},{"code":"GNU","name":"Ganaur","city":"Ganaur","country":"India","lat":29.13078,"lng":77.01075},{"code":"BDMJ","name":"Bhodwal Majri","city":"Bhodwal Majri","country":"India","lat":29.18521,"lng":77.00824},{"code":"SMK","name":"Samalkha","city":"Samalkha","country":"India","lat":29.24017,"lng":77.00303},{"code":"DWNA","name":"Diwana","city":"Diwana","country":"India","lat":29.31856,"lng":76.98019},{"code":"BBDE","name":"Babarpur","city":"Babarpur","country":"India","lat":29.44965,"lng":76.96618},{"code":"KFU","name":"Kohand","city":"Kohand","country":"India","lat":29.49478,"lng":76.96876},{"code":"GRA","name":"Gharaunda","city":"Gharaunda","country":"India","lat":29.54164,"lng":76.96575},{"code":"BZJT","name":"Bazida Jatan","city":"Bazida Jatan","country":"India","lat":29.61339,"lng":76.96581},{"code":"KUN","name":"Karnal","city":"Karnal","country":"India","lat":29.69457,"lng":76.96982},{"code":"BZK","name":"Bhaini Khurd","city":"Bhaini Khurd","country":"India","lat":29.75154,"lng":76.95536},{"code":"TRR","name":"Taraori","city":"Taraori","country":"India","lat":29.79791,"lng":76.93858},{"code":"NLKR","name":"Nilokheri","city":"Nilokheri","country":"India","lat":29.83149,"lng":76.92549},{"code":"KKDE","name":"Kurukshetra Jn","city":"Kurukshetra Jn","country":"India","lat":29.96944,"lng":76.8528},{"code":"DAVM","name":"Dhanuvachapuram","city":"Dhanuvachapuram","country":"India","lat":8.3788,"lng":77.12435},{"code":"CTS","name":"Chattriput","city":"Chattriput","country":"India","lat":18.92272,"lng":82.59003},{"code":"DAVJ","name":"D.A.V.C.H. Jalandhar","city":"D.A.V.C.H. Jalandhar","country":"India","lat":31.34698,"lng":75.56132},{"code":"DLPI","name":"Indrapuri","city":"Indrapuri","country":"India","lat":28.62834,"lng":77.14359},{"code":"GRG","name":"Guwarighat","city":"Guwarighat","country":"India","lat":23.1103,"lng":79.92761},{"code":"DSJ","name":"Delhi Safdarjung","city":"Delhi Safdarjung","country":"India","lat":28.58212,"lng":77.18697},{"code":"DHRN","name":"Dhurana","city":"Dhurana","country":"India","lat":29.25361,"lng":76.8033},{"code":"DUK","name":"Dudia","city":"Dudia","country":"India","lat":25.93446,"lng":72.90204},{"code":"DAJ","name":"Duroji","city":"Duroji","country":"India","lat":15.22711,"lng":76.70013},{"code":"BTPH","name":"Chakia Thermal Halt","city":"Chakia Thermal Halt","country":"India","lat":25.40126,"lng":86.01624},{"code":"JDDA","name":"Jatha","city":"Jatha","country":"India","lat":22.01598,"lng":82.87533},{"code":"JDI","name":"Jharradih","city":"Jharradih","country":"India","lat":21.99988,"lng":83.05075},{"code":"DKO","name":"Devakottai Road","city":"Devakottai Road","country":"India","lat":10.03761,"lng":78.76175},{"code":"DIB","name":"Dibai","city":"Dibai","country":"India","lat":28.19378,"lng":78.30308},{"code":"CNJO","name":"Juhi Outer Cabin","city":"Juhi Outer Cabin","country":"India","lat":26.45319,"lng":80.32391},{"code":"LMA","name":"Lambiya","city":"Lambiya","country":"India","lat":25.57833,"lng":74.58561},{"code":"DOHM","name":"Devgarh Madriya","city":"Devgarh Madriya","country":"India","lat":25.61021,"lng":73.85555},{"code":"DYE","name":"Dayanand Nagar","city":"Dayanand Nagar","country":"India","lat":17.45625,"lng":78.53135},{"code":"DBV","name":"Dabilpur","city":"Dabilpur","country":"India","lat":17.67423,"lng":78.47032},{"code":"BGZ","name":"Bahadurgarh","city":"Bahadurgarh","country":"India","lat":28.70086,"lng":76.93089},{"code":"DME","name":"Damnagar","city":"Damnagar","country":"India","lat":21.68835,"lng":71.50905},{"code":"AG","name":"Aranghata","city":"Aranghata","country":"India","lat":23.24204,"lng":88.61355},{"code":"RLG","name":"Relangi","city":"Relangi","country":"India","lat":16.70992,"lng":81.64411},{"code":"CCAB","name":"Bmy C Cabin","city":"Bmy C Cabin","country":"India","lat":21.20979,"lng":81.44306},{"code":"DNDI","name":"Dhondi","city":"Dhondi","country":"India","lat":19.10627,"lng":76.73611},{"code":"NDO","name":"Nidubrolu","city":"Nidubrolu","country":"India","lat":16.0679,"lng":80.55724},{"code":"FKA","name":"Fazilka","city":"Fazilka","country":"India","lat":30.40864,"lng":74.02542},{"code":"TDD","name":"Tadepalligudem","city":"Tadepalligudem","country":"India","lat":16.80996,"lng":81.52631},{"code":"PTPU","name":"Prattiapadu","city":"Prattiapadu","country":"India","lat":16.82086,"lng":81.58143},{"code":"BDHT","name":"Bardi Halt","city":"Bardi Halt","country":"India","lat":21.62118,"lng":78.82241},{"code":"DJL","name":"Dodajala Lake","city":"Dodajala Lake","country":"India","lat":13.18316,"lng":77.65212},{"code":"DIU","name":"Dhing","city":"Dhing","country":"India","lat":26.4531,"lng":92.45087},{"code":"DGQ","name":"Dugdol","city":"Dugdol","country":"India","lat":24.63171,"lng":72.09683},{"code":"DAU","name":"Dagru","city":"Dagru","country":"India","lat":30.83486,"lng":75.04744},{"code":"GWH","name":"Ghoshawar","city":"Ghoshawar","country":"India","lat":25.73742,"lng":85.24335},{"code":"HJP","name":"Hajipur Jn","city":"Hajipur Jn","country":"India","lat":25.70291,"lng":85.2155},{"code":"PUK","name":"Pudukad","city":"Pudukad","country":"India","lat":10.42051,"lng":76.26071},{"code":"NYI","name":"Nellayi","city":"Nellayi","country":"India","lat":10.39242,"lng":76.27599},{"code":"UKL","name":"Uttukuli","city":"Uttukuli","country":"India","lat":11.15649,"lng":77.44862},{"code":"TUP","name":"Tiruppur","city":"Tiruppur","country":"India","lat":11.10891,"lng":77.34125},{"code":"SNO","name":"Somanur","city":"Somanur","country":"India","lat":11.08725,"lng":77.18638},{"code":"SUU","name":"Sulur Road","city":"Sulur Road","country":"India","lat":11.04963,"lng":77.11729},{"code":"IGU","name":"Irugur","city":"Irugur","country":"India","lat":11.0172,"lng":77.06913},{"code":"SHI","name":"Singanallur","city":"Singanallur","country":"India","lat":11.01292,"lng":77.03946},{"code":"PLMD","name":"Pilamedu","city":"Pilamedu","country":"India","lat":11.03324,"lng":76.99957},{"code":"CBE","name":"Coimbatore Jn","city":"Coimbatore Jn","country":"India","lat":10.99764,"lng":76.9663},{"code":"PTJ","name":"Podanur Jn","city":"Podanur Jn","country":"India","lat":10.96543,"lng":76.99013},{"code":"MDKI","name":"Madukarai","city":"Madukarai","country":"India","lat":10.90086,"lng":76.94295},{"code":"IJK","name":"Irinjalakuda","city":"Irinjalakuda","country":"India","lat":10.33946,"lng":76.28092},{"code":"CKI","name":"Chalakudi","city":"Chalakudi","country":"India","lat":10.3018,"lng":76.32181},{"code":"DINR","name":"Divine Nagar","city":"Divine Nagar","country":"India","lat":10.2854,"lng":76.33631},{"code":"KRAN","name":"Koratti Angadi","city":"Koratti Angadi","country":"India","lat":10.26012,"lng":76.3559},{"code":"KUC","name":"Karukkutty","city":"Karukkutty","country":"India","lat":10.22576,"lng":76.37308},{"code":"AFK","name":"Angamali","city":"Angamali","country":"India","lat":10.18368,"lng":76.37786},{"code":"CWR","name":"Chovvara","city":"Chovvara","country":"India","lat":10.13306,"lng":76.37219},{"code":"DJ","name":"Darjeeling","city":"Darjeeling","country":"India","lat":27.03815,"lng":88.26333},{"code":"AWY","name":"Aluva","city":"Aluva","country":"India","lat":10.10816,"lng":76.35651},{"code":"KLMR","name":"Kalamassery","city":"Kalamassery","country":"India","lat":10.06182,"lng":76.32696},{"code":"IPL","name":"Edappally","city":"Edappally","country":"India","lat":10.03434,"lng":76.29827},{"code":"ERN","name":"Ernakulam Town","city":"Ernakulam Town","country":"India","lat":9.99158,"lng":76.2861},{"code":"ETMD","name":"Ettimadai","city":"Ettimadai","country":"India","lat":10.89879,"lng":76.89716},{"code":"WRA","name":"Walayar","city":"Walayar","country":"India","lat":10.84718,"lng":76.83761},{"code":"DBN","name":"Dhablan","city":"Dhablan","country":"India","lat":30.33791,"lng":76.27692},{"code":"DBF","name":"Dabpal","city":"Dabpal","country":"India","lat":18.92798,"lng":81.48892},{"code":"DBZ","name":"Dhing Bazar","city":"Dhing Bazar","country":"India","lat":26.45587,"lng":92.48104},{"code":"CLMD","name":"Chullimada","city":"Chullimada","country":"India","lat":10.83716,"lng":76.80179},{"code":"KTKU","name":"Kottekad","city":"Kottekad","country":"India","lat":10.81573,"lng":76.69346},{"code":"DLC","name":"Dalmera","city":"Dalmera","country":"India","lat":28.41783,"lng":73.65658},{"code":"TNU","name":"Tirunettur","city":"Tirunettur","country":"India","lat":9.93373,"lng":76.30766},{"code":"KUMM","name":"Kumbalam","city":"Kumbalam","country":"India","lat":9.90672,"lng":76.3116},{"code":"AROR","name":"Aroor Halt","city":"Aroor Halt","country":"India","lat":9.8791,"lng":76.30283},{"code":"EZP","name":"Ezhuppunna","city":"Ezhuppunna","country":"India","lat":9.82029,"lng":76.30239},{"code":"TUVR","name":"Turavur","city":"Turavur","country":"India","lat":9.77281,"lng":76.30998},{"code":"ERSC","name":"Ernakulam Jn. C","city":"Ernakulam Jn. C","country":"India","lat":9.97806,"lng":76.28986},{"code":"DIR","name":"Dhanapur Orissa","city":"Dhanapur Orissa","country":"India","lat":18.94517,"lng":82.50739},{"code":"DRN","name":"Deoranian","city":"Deoranian","country":"India","lat":28.64478,"lng":79.47647},{"code":"BGS","name":"Begu Sarai","city":"Begu Sarai","country":"India","lat":25.4253,"lng":86.13448},{"code":"BQQ","name":"Bakhleta","city":"Bakhleta","country":"India","lat":23.84638,"lng":79.96972},{"code":"GBP","name":"Gulabpura","city":"Gulabpura","country":"India","lat":25.9028,"lng":74.65595},{"code":"REI","name":"Rithi","city":"Rithi","country":"India","lat":23.90417,"lng":80.14027},{"code":"MBWC","name":"Moradabad West","city":"Moradabad West","country":"India","lat":28.83866,"lng":78.75963},{"code":"HRH","name":"Harthala","city":"Harthala","country":"India","lat":28.87199,"lng":78.7356},{"code":"GOA","name":"Gohad Road","city":"Gohad Road","country":"India","lat":26.48042,"lng":78.43915},{"code":"DHNR","name":"Dhanora Deccan","city":"Dhanora Deccan","country":"India","lat":19.46552,"lng":78.13275},{"code":"ALD","name":"Allahabad Jn","city":"Allahabad Jn","country":"India","lat":25.44624,"lng":81.82882},{"code":"ETAH","name":"Etah","city":"Etah","country":"India","lat":27.57117,"lng":78.65392},{"code":"GG","name":"Gandhigram","city":"Gandhigram","country":"India","lat":23.02676,"lng":72.56883},{"code":"BSL","name":"Bhusaval Jn","city":"Bhusaval Jn","country":"India","lat":21.04728,"lng":75.78867},{"code":"KOPR","name":"Kopar Road","city":"Kopar Road","country":"India","lat":19.21135,"lng":73.07784},{"code":"GGLE","name":"Gangatikuri","city":"Gangatikuri","country":"India","lat":23.71822,"lng":88.08729},{"code":"KWD","name":"Karwandia","city":"Karwandia","country":"India","lat":24.9532,"lng":84.0846},{"code":"GDD","name":"Gadra Road","city":"Gadra Road","country":"India","lat":25.74385,"lng":70.64304},{"code":"SSM","name":"Sasaram","city":"Sasaram","country":"India","lat":24.95593,"lng":84.01942},{"code":"DTAE","name":"Dhatrigram","city":"Dhatrigram","country":"India","lat":23.2778,"lng":88.31182},{"code":"SLOR","name":"Seloo Road","city":"Seloo Road","country":"India","lat":20.77665,"lng":78.71491},{"code":"SNI","name":"Sindi","city":"Sindi","country":"India","lat":20.81645,"lng":78.88334},{"code":"DNUA","name":"Dhansura","city":"Dhansura","country":"India","lat":23.35192,"lng":73.19871},{"code":"SGRD","name":"Sulgare","city":"Sulgare","country":"India","lat":22.01998,"lng":82.74378},{"code":"BUA","name":"Baradwar","city":"Baradwar","country":"India","lat":22.01173,"lng":82.81372},{"code":"SKT","name":"Sakti","city":"Sakti","country":"India","lat":22.01179,"lng":82.95653},{"code":"EDU","name":"Eriodu","city":"Eriodu","country":"India","lat":10.51563,"lng":78.05713},{"code":"SUJ","name":"Sarju","city":"Sarju","country":"India","lat":27.11189,"lng":81.64808},{"code":"GDN","name":"Gangaikondan","city":"Gangaikondan","country":"India","lat":8.83074,"lng":77.7862},{"code":"LDR","name":"Landaura","city":"Landaura","country":"India","lat":29.81449,"lng":77.94156},{"code":"DUN","name":"Duganpur","city":"Duganpur","country":"India","lat":28.65832,"lng":79.13019},{"code":"CBJ","name":"Clutter Buck Ganj","city":"Clutter Buck Ganj","country":"India","lat":28.3969,"lng":79.37195},{"code":"BE","name":"Bareilly","city":"Bareilly","country":"India","lat":28.33715,"lng":79.41084},{"code":"DTC","name":"Ditokcherra","city":"Ditokcherra","country":"India","lat":25.09054,"lng":92.79872},{"code":"BPG","name":"Badurpur Ghat","city":"Badurpur Ghat","country":"India","lat":24.8729,"lng":92.5811},{"code":"GIW","name":"Girdharpur","city":"Girdharpur","country":"India","lat":25.84551,"lng":76.79458},{"code":"RYS","name":"Rasuriya","city":"Rasuriya","country":"India","lat":28.26396,"lng":79.47446},{"code":"NYO","name":"Nayagaon","city":"Nayagaon","country":"India","lat":25.76326,"lng":85.09937},{"code":"PMU","name":"Parmanandpur","city":"Parmanandpur","country":"India","lat":25.74129,"lng":85.13395},{"code":"GIR","name":"Gainsari Junction","city":"Gainsari Junction","country":"India","lat":27.52684,"lng":82.54418},{"code":"BPP","name":"Bapatla","city":"Bapatla","country":"India","lat":15.90861,"lng":80.46842},{"code":"APL","name":"Appikatla","city":"Appikatla","country":"India","lat":15.97037,"lng":80.51447},{"code":"MCVM","name":"Machavaram","city":"Machavaram","country":"India","lat":16.02534,"lng":80.54154},{"code":"CEL","name":"Chebrol","city":"Chebrol","country":"India","lat":16.81995,"lng":81.39653},{"code":"GGH","name":"Ghogardiha","city":"Ghogardiha","country":"India","lat":26.28277,"lng":86.4685},{"code":"BPY","name":"Badampudi","city":"Badampudi","country":"India","lat":16.8281,"lng":81.47375},{"code":"ARD","name":"Amarda Road","city":"Amarda Road","country":"India","lat":21.73426,"lng":87.10237},{"code":"PY","name":"Perundurai","city":"Perundurai","country":"India","lat":11.25334,"lng":77.62867},{"code":"FSR","name":"Faqarsar","city":"Faqarsar","country":"India","lat":30.18943,"lng":74.57257},{"code":"CFG","name":"Chakiting","city":"Chakiting","country":"India","lat":26.56168,"lng":94.09565},{"code":"IGR","name":"Ingur","city":"Ingur","country":"India","lat":11.22501,"lng":77.5873},{"code":"VZ","name":"Vijayamangalam","city":"Vijayamangalam","country":"India","lat":11.19553,"lng":77.52223},{"code":"DLA","name":"Doulta","city":"Doulta","country":"India","lat":24.99851,"lng":78.42932},{"code":"TBT","name":"Talbahat","city":"Talbahat","country":"India","lat":25.03926,"lng":78.41455},{"code":"MZX","name":"Matatila","city":"Matatila","country":"India","lat":25.0851,"lng":78.40284},{"code":"BZY","name":"Basai","city":"Basai","country":"India","lat":25.14292,"lng":78.39425},{"code":"BAB","name":"Babina","city":"Babina","country":"India","lat":25.23783,"lng":78.45175},{"code":"KHJ","name":"Khajraha","city":"Khajraha","country":"India","lat":25.30416,"lng":78.47837},{"code":"BJI","name":"Bijauli","city":"Bijauli","country":"India","lat":25.37647,"lng":78.51775},{"code":"JHSA","name":"Jhansi A Cabin","city":"Jhansi A Cabin","country":"India","lat":25.41949,"lng":78.54579},{"code":"JHS","name":"Jhansi Jn","city":"Jhansi Jn","country":"India","lat":25.44359,"lng":78.55298},{"code":"KRQ","name":"Karari","city":"Karari","country":"India","lat":25.5308,"lng":78.50908},{"code":"DAA","name":"Datia","city":"Datia","country":"India","lat":25.64107,"lng":78.45636},{"code":"SOR","name":"Sonagir","city":"Sonagir","country":"India","lat":25.73067,"lng":78.4091},{"code":"KTRA","name":"Kotra","city":"Kotra","country":"India","lat":25.81125,"lng":78.38166},{"code":"DBA","name":"Dabra","city":"Dabra","country":"India","lat":25.8812,"lng":78.33101},{"code":"SMTL","name":"Simariatal","city":"Simariatal","country":"India","lat":25.922,"lng":78.30426},{"code":"AEH","name":"Anant Paith","city":"Anant Paith","country":"India","lat":25.95539,"lng":78.27613},{"code":"FRH","name":"Farhatnagar","city":"Farhatnagar","country":"India","lat":27.08116,"lng":80.14321},{"code":"GATD","name":"Gautamdhara","city":"Gautamdhara","country":"India","lat":23.34988,"lng":85.63299},{"code":"GEG","name":"Gir Gadhara","city":"Gir Gadhara","country":"India","lat":20.90635,"lng":70.91925},{"code":"FLD","name":"Phulad","city":"Phulad","country":"India","lat":25.62398,"lng":73.81312},{"code":"GADM","name":"Ganga Dham","city":"Ganga Dham","country":"India","lat":27.20976,"lng":81.93051},{"code":"DTR","name":"Dhamtari","city":"Dhamtari","country":"India","lat":20.71452,"lng":81.55032},{"code":"DRW","name":"Dharewada","city":"Dharewada","country":"India","lat":23.96082,"lng":72.37858},{"code":"KZQ","name":"Khimel","city":"Khimel","country":"India","lat":25.30019,"lng":73.27958},{"code":"HDU","name":"Hardua","city":"Hardua","country":"India","lat":23.91505,"lng":80.28341},{"code":"HDW","name":"Haldwani","city":"Haldwani","country":"India","lat":29.2151,"lng":79.53373},{"code":"AKT","name":"Akaltara","city":"Akaltara","country":"India","lat":22.02912,"lng":82.42205},{"code":"HBU","name":"Halbarga","city":"Halbarga","country":"India","lat":17.98847,"lng":77.29818},{"code":"GNH","name":"Gangakher","city":"Gangakher","country":"India","lat":18.97338,"lng":76.75551},{"code":"NIA","name":"Naila","city":"Naila","country":"India","lat":22.02296,"lng":82.56459},{"code":"KMGE","name":"Kumahu","city":"Kumahu","country":"India","lat":24.97694,"lng":83.94631},{"code":"SSG","name":"Shiu Sagar Road","city":"Shiu Sagar Road","country":"India","lat":24.99946,"lng":83.89545},{"code":"CPH","name":"Champa","city":"Champa","country":"India","lat":22.03473,"lng":82.66515},{"code":"GPX","name":"Gautampura Road","city":"Gautampura Road","country":"India","lat":23.20089,"lng":75.68199},{"code":"RGQ","name":"Raigadh Road","city":"Raigadh Road","country":"India","lat":23.59667,"lng":73.18359},{"code":"GS","name":"Godhaneshwar","city":"Godhaneshwar","country":"India","lat":22.68118,"lng":72.36834},{"code":"GLH","name":"Gulaothi","city":"Gulaothi","country":"India","lat":28.58296,"lng":77.8018},{"code":"HNB","name":"Hasanabad","city":"Hasanabad","country":"India","lat":22.57016,"lng":88.91295},{"code":"PUA","name":"Pulla","city":"Pulla","country":"India","lat":16.80991,"lng":81.32485},{"code":"KKRM","name":"Kaikoram","city":"Kaikoram","country":"India","lat":16.81534,"lng":81.36422},{"code":"JER","name":"Jaleswar","city":"Jaleswar","country":"India","lat":21.79749,"lng":87.22049},{"code":"FYZ","name":"Faizullapur","city":"Faizullapur","country":"India","lat":25.86921,"lng":80.89335},{"code":"ED","name":"Erode Jn","city":"Erode Jn","country":"India","lat":11.32768,"lng":77.72593},{"code":"HR","name":"Harpalu","city":"Harpalu","country":"India","lat":28.56905,"lng":75.49105},{"code":"RUB","name":"Rasulabad","city":"Rasulabad","country":"India","lat":25.827,"lng":80.97709},{"code":"SNIE","name":"Sath Naraini","city":"Sath Naraini","country":"India","lat":25.79533,"lng":81.03942},{"code":"DUR","name":"Desur","city":"Desur","country":"India","lat":15.75434,"lng":74.49801},{"code":"CNC","name":"Chinchli","city":"Chinchli","country":"India","lat":16.5717,"lng":74.85532},{"code":"MTB","name":"Matlabpur","city":"Matlabpur","country":"India","lat":28.98982,"lng":78.65673},{"code":"KNT","name":"Kanth","city":"Kanth","country":"India","lat":29.05977,"lng":78.62147},{"code":"MWE","name":"Mewa Nawada","city":"Mewa Nawada","country":"India","lat":29.11839,"lng":78.61317},{"code":"SEO","name":"Seohara","city":"Seohara","country":"India","lat":29.20481,"lng":78.58098},{"code":"CAJ","name":"Chakraj Mal","city":"Chakraj Mal","country":"India","lat":29.24978,"lng":78.53605},{"code":"DPR","name":"Dhampur","city":"Dhampur","country":"India","lat":29.30545,"lng":78.50159},{"code":"HBW","name":"Habibwala","city":"Habibwala","country":"India","lat":29.34903,"lng":78.47897},{"code":"GKD","name":"Gadhakda","city":"Gadhakda","country":"India","lat":21.23796,"lng":71.38172},{"code":"PNI","name":"Puraini","city":"Puraini","country":"India","lat":29.38893,"lng":78.44557},{"code":"NGG","name":"Nagina","city":"Nagina","country":"India","lat":29.43792,"lng":78.42412},{"code":"BEK","name":"Bundki","city":"Bundki","country":"India","lat":29.52258,"lng":78.39329},{"code":"GYN","name":"Gyanpur Road","city":"Gyanpur Road","country":"India","lat":25.28014,"lng":82.42729},{"code":"MSDR","name":"Murshadpur","city":"Murshadpur","country":"India","lat":29.5724,"lng":78.37565},{"code":"NBD","name":"Najibabad Jn","city":"Najibabad Jn","country":"India","lat":29.60354,"lng":78.33573},{"code":"FZL","name":"Fazalpur","city":"Fazalpur","country":"India","lat":29.59374,"lng":78.27795},{"code":"CNK","name":"Chandok","city":"Chandok","country":"India","lat":29.57679,"lng":78.15278},{"code":"BLW","name":"Balawali","city":"Balawali","country":"India","lat":29.62743,"lng":78.11243},{"code":"RSI","name":"Raisi","city":"Raisi","country":"India","lat":29.69283,"lng":78.06643},{"code":"AAR","name":"Adesar","city":"Adesar","country":"India","lat":23.55298,"lng":70.97205},{"code":"HRR","name":"Harihar","city":"Harihar","country":"India","lat":14.51543,"lng":75.81231},{"code":"GVA","name":"Ganguwada","city":"Ganguwada","country":"India","lat":18.66764,"lng":84.10722},{"code":"GUX","name":"Gurhi","city":"Gurhi","country":"India","lat":21.62955,"lng":76.58075},{"code":"HMH","name":"Hanumangarh Jn","city":"Hanumangarh Jn","country":"India","lat":29.6149,"lng":74.29763},{"code":"AAM","name":"Angadippuram","city":"Angadippuram","country":"India","lat":10.97949,"lng":76.20734},{"code":"PHR","name":"Phillaur Jn","city":"Phillaur Jn","country":"India","lat":31.01691,"lng":75.78576},{"code":"LDW","name":"Ladhowal","city":"Ladhowal","country":"India","lat":31.01696,"lng":75.78581},{"code":"LDH","name":"Ludhiana Jn","city":"Ludhiana Jn","country":"India","lat":30.91237,"lng":75.84787},{"code":"BHOI","name":"Dhandarikalan Block Hut","city":"Dhandarikalan Block Hut","country":"India","lat":30.89474,"lng":75.87188},{"code":"HKR","name":"Kiwar Khed","city":"Kiwar Khed","country":"India","lat":21.18695,"lng":76.8767},{"code":"DDL","name":"Dhandari Kalan","city":"Dhandari Kalan","country":"India","lat":30.87448,"lng":75.90949},{"code":"SNL","name":"Sanahwal","city":"Sanahwal","country":"India","lat":30.83744,"lng":75.9795},{"code":"DOA","name":"Doraha","city":"Doraha","country":"India","lat":30.80414,"lng":76.0433},{"code":"JSPN","name":"Jaspalon","city":"Jaspalon","country":"India","lat":30.78474,"lng":76.08015},{"code":"CHA","name":"Chawapall","city":"Chawapall","country":"India","lat":30.75946,"lng":76.12746},{"code":"KNN","name":"Khanna","city":"Khanna","country":"India","lat":30.70797,"lng":76.22513},{"code":"GVG","name":"Govindgarh","city":"Govindgarh","country":"India","lat":30.66948,"lng":76.29707},{"code":"SIR","name":"Sirhind Jn","city":"Sirhind Jn","country":"India","lat":30.62422,"lng":76.38319},{"code":"SDY","name":"Sadhoo Garh","city":"Sadhoo Garh","country":"India","lat":30.58286,"lng":76.44847},{"code":"SBJ","name":"Sarai Banjara","city":"Sarai Banjara","country":"India","lat":30.53839,"lng":76.51568},{"code":"RPJ","name":"Rajpura Jn","city":"Rajpura Jn","country":"India","lat":30.48646,"lng":76.59402},{"code":"SMU","name":"Sambhu","city":"Sambhu","country":"India","lat":30.42903,"lng":76.68414},{"code":"CDL","name":"Chodiala","city":"Chodiala","country":"India","lat":29.8964,"lng":77.73855},{"code":"IQB","name":"Iqbalpur","city":"Iqbalpur","country":"India","lat":29.87511,"lng":77.8038},{"code":"RK","name":"Roorkee","city":"Roorkee","country":"India","lat":29.85167,"lng":77.87417},{"code":"DNRA","name":"Dhandhera","city":"Dhandhera","country":"India","lat":29.8434,"lng":77.90192},{"code":"DSNI","name":"Dausni","city":"Dausni","country":"India","lat":29.78475,"lng":77.97964},{"code":"CPT","name":"Channapatna","city":"Channapatna","country":"India","lat":12.65967,"lng":77.20382},{"code":"KGF","name":"Kathghar","city":"Kathghar","country":"India","lat":28.82607,"lng":78.79669},{"code":"DLP","name":"Dalpatpur","city":"Dalpatpur","country":"India","lat":28.82044,"lng":78.87719},{"code":"MPH","name":"Mundha Pande","city":"Mundha Pande","country":"India","lat":28.80037,"lng":78.93904},{"code":"RMU","name":"Rampur","city":"Rampur","country":"India","lat":28.77886,"lng":79.02342},{"code":"SAR","name":"Shahzad Nagar","city":"Shahzad Nagar","country":"India","lat":28.75003,"lng":79.05215},{"code":"DAM","name":"Dhamora","city":"Dhamora","country":"India","lat":28.70713,"lng":79.08775},{"code":"AABH","name":"Ambika Bhawani Halt","city":"Ambika Bhawani Halt","country":"India","lat":25.75143,"lng":84.969},{"code":"DGA","name":"Dighwara","city":"Dighwara","country":"India","lat":25.74394,"lng":85.00317},{"code":"STLR","name":"Sitalpur","city":"Sitalpur","country":"India","lat":25.76874,"lng":85.03664},{"code":"JDR","name":"Jiwdhara","city":"Jiwdhara","country":"India","lat":26.58172,"lng":84.90687},{"code":"AWP","name":"Aghwanpur","city":"Aghwanpur","country":"India","lat":28.93954,"lng":78.70287},{"code":"KIA","name":"Khari Amrapur","city":"Khari Amrapur","country":"India","lat":23.39071,"lng":72.91395},{"code":"IMR","name":"Ibrahimpur","city":"Ibrahimpur","country":"India","lat":16.80293,"lng":75.71936},{"code":"JND","name":"Junagadh Jn","city":"Junagadh Jn","country":"India","lat":21.53061,"lng":70.45761},{"code":"JA","name":"Jaliya","city":"Jaliya","country":"India","lat":21.81636,"lng":71.63249},{"code":"IDP","name":"Indupalli","city":"Indupalli","country":"India","lat":16.47909,"lng":80.87707},{"code":"DBL","name":"Dodbele","city":"Dodbele","country":"India","lat":13.21644,"lng":77.35119},{"code":"KVD","name":"Khurmabad Road","city":"Khurmabad Road","country":"India","lat":25.02149,"lng":83.8483},{"code":"JBO","name":"Jamadobu","city":"Jamadobu","country":"India","lat":23.71514,"lng":86.41003},{"code":"KTQ","name":"Kudra","city":"Kudra","country":"India","lat":25.04855,"lng":83.79337},{"code":"PSE","name":"Pusauli","city":"Pusauli","country":"India","lat":25.09724,"lng":83.72151},{"code":"STPT","name":"Sitampet","city":"Sitampet","country":"India","lat":16.79741,"lng":81.21121},{"code":"JHBN","name":"Jhamatpur Baharan","city":"Jhamatpur Baharan","country":"India","lat":23.74999,"lng":88.09867},{"code":"UBC","name":"Ambala City","city":"Ambala City","country":"India","lat":30.3785,"lng":76.764},{"code":"JIT","name":"Jirat","city":"Jirat","country":"India","lat":23.09826,"lng":88.46146},{"code":"BMD","name":"Bhimadolu","city":"Bhimadolu","country":"India","lat":16.80848,"lng":81.2611},{"code":"JDD","name":"Jerthi Dadhia","city":"Jerthi Dadhia","country":"India","lat":27.73162,"lng":75.20108},{"code":"LXD","name":"Lakshannath Road","city":"Lakshannath Road","country":"India","lat":21.84201,"lng":87.25095},{"code":"JGJN","name":"Jugijan","city":"Jugijan","country":"India","lat":26.028,"lng":92.81771},{"code":"JMI","name":"Jamguri","city":"Jamguri","country":"India","lat":26.38771,"lng":93.96045},{"code":"CSM","name":"Cansaulim","city":"Cansaulim","country":"India","lat":15.34453,"lng":73.89723},{"code":"BPW","name":"Burhpura","city":"Burhpura","country":"India","lat":25.21118,"lng":78.42955},{"code":"IDM","name":"Indemau","city":"Indemau","country":"India","lat":26.31834,"lng":80.76702},{"code":"KSR","name":"Kasturi","city":"Kasturi","country":"India","lat":27.13998,"lng":81.72884},{"code":"MIR","name":"Maijapur","city":"Maijapur","country":"India","lat":27.14173,"lng":81.77379},{"code":"JNO","name":"Junnor Deo","city":"Junnor Deo","country":"India","lat":22.19128,"lng":78.59205},{"code":"GDK","name":"Gonda Kachahri","city":"Gonda Kachahri","country":"India","lat":27.14023,"lng":81.93403},{"code":"BRCK","name":"Baruachak","city":"Baruachak","country":"India","lat":27.12267,"lng":82.05518},{"code":"JOL","name":"Jogal","city":"Jogal","country":"India","lat":21.69644,"lng":86.88271},{"code":"ICL","name":"Ichauli","city":"Ichauli","country":"India","lat":25.52096,"lng":80.17883},{"code":"MOTG","name":"Motiganj","city":"Motiganj","country":"India","lat":27.10139,"lng":82.10364},{"code":"JLHI","name":"Jhilahi","city":"Jhilahi","country":"India","lat":27.0726,"lng":82.17288},{"code":"KAU","name":"Kachna","city":"Kachna","country":"India","lat":25.63374,"lng":88.02464},{"code":"JOA","name":"Janwal","city":"Janwal","country":"India","lat":18.55964,"lng":76.75515},{"code":"JADR","name":"Jadar","city":"Jadar","country":"India","lat":23.74581,"lng":72.95237},{"code":"JJW","name":"Jojwa","city":"Jojwa","country":"India","lat":22.25321,"lng":73.64243},{"code":"MUR","name":"Mankapur Jn","city":"Mankapur Jn","country":"India","lat":27.03906,"lng":82.22765},{"code":"LKNR","name":"Lakhpat Nagar","city":"Lakhpat Nagar","country":"India","lat":27.02763,"lng":82.27759},{"code":"MSW","name":"Maskanwa","city":"Maskanwa","country":"India","lat":27.00138,"lng":82.35974},{"code":"ANU","name":"Anangur","city":"Anangur","country":"India","lat":11.39694,"lng":77.82005},{"code":"SNC","name":"S Narayan Chpla","city":"S Narayan Chpla","country":"India","lat":26.981,"lng":82.39617},{"code":"HSB","name":"Hasanbazar Halt","city":"Hasanbazar Halt","country":"India","lat":25.26658,"lng":84.3493},{"code":"BNGY","name":"Bahman Jyotia","city":"Bahman Jyotia","country":"India","lat":26.96626,"lng":82.42736},{"code":"PATI","name":"Parsa Tewari","city":"Parsa Tewari","country":"India","lat":26.95565,"lng":82.45215},{"code":"JI","name":"Jhusi","city":"Jhusi","country":"India","lat":25.43115,"lng":81.91664},{"code":"GOVR","name":"Govindnagar","city":"Govindnagar","country":"India","lat":26.86422,"lng":82.70747},{"code":"BST","name":"Basti","city":"Basti","country":"India","lat":26.81568,"lng":82.77006},{"code":"ORW","name":"Orwara","city":"Orwara","country":"India","lat":26.80239,"lng":82.83031},{"code":"CRV","name":"Chureb","city":"Chureb","country":"India","lat":26.78216,"lng":82.97764},{"code":"MOW","name":"Mananwala","city":"Mananwala","country":"India","lat":31.61283,"lng":74.96656},{"code":"JNL","name":"Jandiala","city":"Jandiala","country":"India","lat":31.58998,"lng":75.05441},{"code":"TRA","name":"Tangra","city":"Tangra","country":"India","lat":31.57643,"lng":75.10723},{"code":"JSH","name":"Jaswantgarh","city":"Jaswantgarh","country":"India","lat":27.66899,"lng":74.44397},{"code":"BTR","name":"Butari","city":"Butari","country":"India","lat":31.55644,"lng":75.18327},{"code":"BBKR","name":"Baba Bakalaraya","city":"Baba Bakalaraya","country":"India","lat":31.54184,"lng":75.23883},{"code":"BEAS","name":"Beas","city":"Beas","country":"India","lat":31.51937,"lng":75.29081},{"code":"DIW","name":"Dhilwan","city":"Dhilwan","country":"India","lat":31.49895,"lng":75.33501},{"code":"RYM","name":"Ramidi Halt","city":"Ramidi Halt","country":"India","lat":31.46595,"lng":75.40784},{"code":"JKI","name":"Kauriaa Jungle","city":"Kauriaa Jungle","country":"India","lat":26.88107,"lng":83.2998},{"code":"HMR","name":"Hamira","city":"Hamira","country":"India","lat":31.45628,"lng":75.4327},{"code":"KRE","name":"Kartarpur","city":"Kartarpur","country":"India","lat":31.43239,"lng":75.49254},{"code":"SRX","name":"Sura Nussi","city":"Sura Nussi","country":"India","lat":31.38055,"lng":75.54196},{"code":"LOHA","name":"Loha","city":"Loha","country":"India","lat":28.00692,"lng":74.61942},{"code":"BBSL","name":"Baba Sodhal Nagar","city":"Baba Sodhal Nagar","country":"India","lat":31.35302,"lng":75.56487},{"code":"JUC","name":"Jalandhar City","city":"Jalandhar City","country":"India","lat":31.33167,"lng":75.5915},{"code":"KBA","name":"Kurabalakota","city":"Kurabalakota","country":"India","lat":13.66628,"lng":78.48584},{"code":"JRC","name":"Jalandhar Cant","city":"Jalandhar Cant","country":"India","lat":31.30624,"lng":75.63211},{"code":"ABE","name":"Ambikeshwar","city":"Ambikeshwar","country":"India","lat":26.36857,"lng":77.96383},{"code":"CEU","name":"Chiheru","city":"Chiheru","country":"India","lat":31.26269,"lng":75.70669},{"code":"MLIH","name":"Mauli Halt","city":"Mauli Halt","country":"India","lat":31.175,"lng":75.76923},{"code":"MAUL","name":"Maula Ali","city":"Maula Ali","country":"India","lat":31.17531,"lng":75.76954},{"code":"GRY","name":"Goraya","city":"Goraya","country":"India","lat":31.12972,"lng":75.77419},{"code":"JTO","name":"Jutogh","city":"Jutogh","country":"India","lat":31.10073,"lng":77.12204},{"code":"JPS","name":"Jamalpur Shaikhan","city":"Jamalpur Shaikhan","country":"India","lat":29.69995,"lng":75.85744},{"code":"BTTN","name":"Bhatian","city":"Bhatian","country":"India","lat":31.07144,"lng":75.78001},{"code":"PPDA","name":"Panchpatia Deoria Halt","city":"Panchpatia Deoria Halt","country":"India","lat":25.76873,"lng":84.93613},{"code":"KHBV","name":"Kharbao","city":"Kharbao","country":"India","lat":19.29725,"lng":72.98344},{"code":"KEV","name":"Kela Devi","city":"Kela Devi","country":"India","lat":27.01561,"lng":77.32907},{"code":"KDE","name":"Koradacheri","city":"Koradacheri","country":"India","lat":10.77102,"lng":79.49003},{"code":"SHGN","name":"Shri Ghasinagar","city":"Shri Ghasinagar","country":"India","lat":27.08651,"lng":76.62681},{"code":"QGT","name":"Kolaghat","city":"Kolaghat","country":"India","lat":22.43433,"lng":87.87965},{"code":"BW","name":"Biwai","city":"Biwai","country":"India","lat":27.11062,"lng":76.69609},{"code":"KHM","name":"Kusmhi","city":"Kusmhi","country":"India","lat":26.72824,"lng":83.45384},{"code":"NYN","name":"Naini","city":"Naini","country":"India","lat":25.39314,"lng":81.86004},{"code":"CTHR","name":"Chitahra","city":"Chitahra","country":"India","lat":24.86263,"lng":80.84285},{"code":"STA","name":"Satna","city":"Satna","country":"India","lat":24.56862,"lng":80.82772},{"code":"KALS","name":"Kalas Halt","city":"Kalas Halt","country":"India","lat":15.08645,"lng":75.38998},{"code":"KLPM","name":"Kailasapuram","city":"Kailasapuram","country":"India","lat":8.84739,"lng":77.99461},{"code":"KHNP","name":"Khanapur Deccan","city":"Khanapur Deccan","country":"India","lat":17.94218,"lng":77.38216},{"code":"KBSH","name":"Krishna Ballabh","city":"Krishna Ballabh","country":"India","lat":24.25582,"lng":86.48297},{"code":"KEMA","name":"Kukma","city":"Kukma","country":"India","lat":23.21703,"lng":69.76627},{"code":"KKDI","name":"Karaikkudi Junction","city":"Karaikkudi Junction","country":"India","lat":10.06852,"lng":78.79331},{"code":"JXN","name":"Jirona","city":"Jirona","country":"India","lat":19.40745,"lng":77.95139},{"code":"KJZ","name":"Karonji","city":"Karonji","country":"India","lat":23.28248,"lng":82.92301},{"code":"KDZ","name":"Kandaghat","city":"Kandaghat","country":"India","lat":30.96554,"lng":77.107},{"code":"NPB","name":"Nagapattinam Beach","city":"Nagapattinam Beach","country":"India","lat":10.76449,"lng":79.84844},{"code":"MNU","name":"Mundikota","city":"Mundikota","country":"India","lat":21.37251,"lng":79.83483},{"code":"JWN","name":"Jiwa Arain","city":"Jiwa Arain","country":"India","lat":30.67376,"lng":74.35565},{"code":"KWN","name":"Kachewani","city":"Kachewani","country":"India","lat":21.43031,"lng":79.98166},{"code":"AGN","name":"Amgaon","city":"Amgaon","country":"India","lat":21.36129,"lng":80.37465},{"code":"DURG","name":"Durg","city":"Durg","country":"India","lat":21.20033,"lng":81.29184},{"code":"KPNA","name":"Kapan","city":"Kapan","country":"India","lat":22.02602,"lng":82.49483},{"code":"KDTR","name":"Kirodimalnagar","city":"Kirodimalnagar","country":"India","lat":21.92699,"lng":83.33251},{"code":"MTGE","name":"Muthani","city":"Muthani","country":"India","lat":25.17324,"lng":83.61914},{"code":"SPF","name":"Stuartpuram","city":"Stuartpuram","country":"India","lat":15.868,"lng":80.40691},{"code":"EE","name":"Eluru","city":"Eluru","country":"India","lat":16.71782,"lng":81.11976},{"code":"DEL","name":"Denduluru","city":"Denduluru","country":"India","lat":16.78141,"lng":81.18047},{"code":"AGV","name":"Angua","city":"Angua","country":"India","lat":21.89258,"lng":87.26992},{"code":"DNT","name":"Dantan","city":"Dantan","country":"India","lat":21.93038,"lng":87.28406},{"code":"KHTN","name":"Khutauna","city":"Khutauna","country":"India","lat":26.49437,"lng":86.39741},{"code":"BBU","name":"Bhabua Road","city":"Bhabua Road","country":"India","lat":25.17301,"lng":83.61891},{"code":"KJC","name":"Kasganj City","city":"Kasganj City","country":"India","lat":27.81497,"lng":78.65806},{"code":"DGO","name":"Durgauti","city":"Durgauti","country":"India","lat":25.2079,"lng":83.53968},{"code":"MVPM","name":"Mavelipalaiyam","city":"Mavelipalaiyam","country":"India","lat":11.48091,"lng":77.89921},{"code":"SGE","name":"Sankaridurg","city":"Sankaridurg","country":"India","lat":11.44573,"lng":77.87044},{"code":"DCX","name":"Dhanichha","city":"Dhanichha","country":"India","lat":25.22717,"lng":83.49084},{"code":"KID","name":"Khairar Jn","city":"Khairar Jn","country":"India","lat":25.45196,"lng":80.23607},{"code":"KHOH","name":"Khoh","city":"Khoh","country":"India","lat":25.20949,"lng":80.97998},{"code":"KLI","name":"Kauli","city":"Kauli","country":"India","lat":30.41839,"lng":76.51988},{"code":"KLAR","name":"Kulpahar","city":"Kulpahar","country":"India","lat":25.29552,"lng":79.63751},{"code":"KMS","name":"Karamnasa","city":"Karamnasa","country":"India","lat":25.23974,"lng":83.43089},{"code":"KHBJ","name":"Khanna Banjari","city":"Khanna Banjari","country":"India","lat":23.89709,"lng":80.82272},{"code":"SYJ","name":"Saidraja","city":"Saidraja","country":"India","lat":25.25353,"lng":83.35118},{"code":"GAQ","name":"Ganj Khawaja","city":"Ganj Khawaja","country":"India","lat":25.27392,"lng":83.18436},{"code":"FOCM","name":"Flyover Cabin Mughalsarai","city":"Flyover Cabin Mughalsarai","country":"India","lat":25.28936,"lng":83.17239},{"code":"KCT","name":"Kirakat","city":"Kirakat","country":"India","lat":25.64536,"lng":82.9248},{"code":"KLD","name":"Khalilabad","city":"Khalilabad","country":"India","lat":26.77453,"lng":83.05507},{"code":"MHH","name":"Maghar","city":"Maghar","country":"India","lat":26.75001,"lng":83.13374},{"code":"SIPR","name":"Sihapar","city":"Sihapar","country":"India","lat":26.7579,"lng":83.16487},{"code":"SWA","name":"Sahjanwa","city":"Sahjanwa","country":"India","lat":26.76308,"lng":83.2147},{"code":"MWH","name":"Malwan","city":"Malwan","country":"India","lat":26.01725,"lng":80.68559},{"code":"JTB","name":"Jagatbela","city":"Jagatbela","country":"India","lat":26.77222,"lng":83.27851},{"code":"KJS","name":"Krishnarajasagar","city":"Krishnarajasagar","country":"India","lat":12.40143,"lng":76.56703},{"code":"KLK","name":"Kalka","city":"Kalka","country":"India","lat":30.83767,"lng":76.93176},{"code":"KKS","name":"Kurasti Kalan","city":"Kurasti Kalan","country":"India","lat":25.95509,"lng":80.75246},{"code":"FTP","name":"Fatehpur","city":"Fatehpur","country":"India","lat":25.91749,"lng":80.80187},{"code":"DMG","name":"Domingarh","city":"Domingarh","country":"India","lat":26.76525,"lng":83.34199},{"code":"BTK","name":"Bankata","city":"Bankata","country":"India","lat":26.26592,"lng":84.09492},{"code":"KKL","name":"Kala Bakra","city":"Kala Bakra","country":"India","lat":31.47518,"lng":75.63035},{"code":"BAGL","name":"Baragopal","city":"Baragopal","country":"India","lat":25.76509,"lng":84.90677},{"code":"ATNR","name":"Awatar Nagar","city":"Awatar Nagar","country":"India","lat":25.7644,"lng":84.95677},{"code":"KHKT","name":"Khotkhoti","city":"Khotkhoti","country":"India","lat":25.95248,"lng":93.75476},{"code":"ARI","name":"Antri","city":"Antri","country":"India","lat":26.03523,"lng":78.2267},{"code":"KDPS","name":"Kadipur Sani Ha","city":"Kadipur Sani Ha","country":"India","lat":27.86275,"lng":80.77904},{"code":"KITN","name":"Khiri Town","city":"Khiri Town","country":"India","lat":27.90294,"lng":80.78848},{"code":"MNF","name":"Manda Road","city":"Manda Road","country":"India","lat":25.16272,"lng":82.23668},{"code":"MZP","name":"Mirzapur","city":"Mirzapur","country":"India","lat":25.13435,"lng":82.56987},{"code":"JHG","name":"Jhingura","city":"Jhingura","country":"India","lat":25.12447,"lng":82.65135},{"code":"PRE","name":"Pahara","city":"Pahara","country":"India","lat":25.11978,"lng":82.72478},{"code":"DAP","name":"Dagmagpur","city":"Dagmagpur","country":"India","lat":25.09888,"lng":82.80099},{"code":"CAR","name":"Chunar","city":"Chunar","country":"India","lat":25.10335,"lng":82.8747},{"code":"KYT","name":"Kailahat","city":"Kailahat","country":"India","lat":25.15522,"lng":82.94758},{"code":"ARW","name":"Ahraura Road","city":"Ahraura Road","country":"India","lat":25.1965,"lng":83.01888},{"code":"JEP","name":"Jeonathpur","city":"Jeonathpur","country":"India","lat":25.2314,"lng":83.0619},{"code":"NEWC","name":"New West Cabin","city":"New West Cabin","country":"India","lat":25.27379,"lng":83.10921},{"code":"PRKD","name":"Powerkheda","city":"Powerkheda","country":"India","lat":22.67348,"lng":77.74736},{"code":"ITKL","name":"Itayakalan","city":"Itayakalan","country":"India","lat":23.04984,"lng":77.5462},{"code":"KOZ","name":"Kosma","city":"Kosma","country":"India","lat":27.15666,"lng":78.83728},{"code":"MDDP","name":"Mandi Dip","city":"Mandi Dip","country":"India","lat":23.09375,"lng":77.51108},{"code":"KTM","name":"Kutralam","city":"Kutralam","country":"India","lat":11.06983,"lng":79.55739},{"code":"NGN","name":"Nandgaon","city":"Nandgaon","country":"India","lat":20.30762,"lng":74.65953},{"code":"KTX","name":"Katakhal Jn","city":"Katakhal Jn","country":"India","lat":24.83436,"lng":92.62707},{"code":"KRBA","name":"Korba","city":"Korba","country":"India","lat":22.33758,"lng":82.71301},{"code":"ET","name":"Itarsi Jn","city":"Itarsi Jn","country":"India","lat":22.60826,"lng":77.76713},{"code":"KSAR","name":"Kudala Sangam","city":"Kudala Sangam","country":"India","lat":16.30677,"lng":75.89106},{"code":"KIAT","name":"Kyatsandra","city":"Kyatsandra","country":"India","lat":13.3162,"lng":77.14811},{"code":"KSPR","name":"Kashipura Sarar","city":"Kashipura Sarar","country":"India","lat":22.12009,"lng":73.14584},{"code":"CNT","name":"Contai Road","city":"Contai Road","country":"India","lat":22.07858,"lng":87.33984},{"code":"KRMD","name":"Kuarmunda","city":"Kuarmunda","country":"India","lat":22.28668,"lng":84.78985},{"code":"GEA","name":"Ghatera","city":"Ghatera","country":"India","lat":23.82939,"lng":79.67339},{"code":"KQD","name":"Khairatabad Dcn","city":"Khairatabad Dcn","country":"India","lat":17.41422,"lng":78.46165},{"code":"ORKI","name":"Orki","city":"Orki","country":"India","lat":30.0916,"lng":73.89132},{"code":"HYA","name":"Hadiaya","city":"Hadiaya","country":"India","lat":30.33705,"lng":75.47701},{"code":"MLQ","name":"Malkera Junction","city":"Malkera Junction","country":"India","lat":23.77973,"lng":86.29695},{"code":"KOHR","name":"Kohir Deccan","city":"Kohir Deccan","country":"India","lat":17.60889,"lng":77.71198},{"code":"HMQ","name":"Himmatpura","city":"Himmatpura","country":"India","lat":29.7505,"lng":75.8606},{"code":"NBKH","name":"Naba Gram Kanku","city":"Naba Gram Kanku","country":"India","lat":23.66157,"lng":88.10026},{"code":"ABKA","name":"Ambika Kalna","city":"Ambika Kalna","country":"India","lat":23.21138,"lng":88.35398},{"code":"KMAE","name":"Khamargachhi","city":"Khamargachhi","country":"India","lat":23.05423,"lng":88.44421},{"code":"IPPM","name":"Ipurupalem","city":"Ipurupalem","country":"India","lat":15.85191,"lng":80.38512},{"code":"KNNK","name":"Kanina Khas","city":"Kanina Khas","country":"India","lat":28.32125,"lng":76.30038},{"code":"NZD","name":"Nuzvid","city":"Nuzvid","country":"India","lat":16.64993,"lng":80.96153},{"code":"KNH","name":"Konch","city":"Konch","country":"India","lat":25.99511,"lng":79.15771},{"code":"VAT","name":"Vatlur","city":"Vatlur","country":"India","lat":16.69451,"lng":81.04447},{"code":"HOJ","name":"Hamitonganj","city":"Hamitonganj","country":"India","lat":26.68891,"lng":89.41684},{"code":"KMKD","name":"Khamkhed","city":"Khamkhed","country":"India","lat":20.90416,"lng":76.12234},{"code":"NSI","name":"Nikursini","city":"Nikursini","country":"India","lat":22.00465,"lng":87.30619},{"code":"KTKL","name":"Kotli Kalan","city":"Kotli Kalan","country":"India","lat":30.0411,"lng":75.29755},{"code":"JSRD","name":"Jhankad Sarala Road","city":"Jhankad Sarala Road","country":"India","lat":20.29019,"lng":86.30428},{"code":"BLDA","name":"Belda","city":"Belda","country":"India","lat":22.07144,"lng":87.33691},{"code":"MAKR","name":"Malkheri","city":"Malkheri","country":"India","lat":24.16992,"lng":78.22301},{"code":"DC","name":"Magudanchavadi","city":"Magudanchavadi","country":"India","lat":11.55092,"lng":77.98726},{"code":"BJQ","name":"Baghora","city":"Baghora","country":"India","lat":24.13588,"lng":78.26034},{"code":"KYE","name":"Khurai","city":"Khurai","country":"India","lat":24.05153,"lng":78.33113},{"code":"SMRR","name":"Sumreri","city":"Sumreri","country":"India","lat":24.00695,"lng":78.39941},{"code":"KOY","name":"Kherol","city":"Kherol","country":"India","lat":23.31043,"lng":72.93413},{"code":"JLM","name":"Jaliya Math","city":"Jaliya Math","country":"India","lat":23.22758,"lng":72.8776},{"code":"JRK","name":"Jeruwa Khera","city":"Jeruwa Khera","country":"India","lat":23.97374,"lng":78.47873},{"code":"CV","name":"Kaveri","city":"Kaveri","country":"India","lat":11.35103,"lng":77.76095},{"code":"ISH","name":"Isarwara","city":"Isarwara","country":"India","lat":23.92721,"lng":78.54899},{"code":"NOI","name":"Nariaoli","city":"Nariaoli","country":"India","lat":23.89567,"lng":78.60415},{"code":"KSI","name":"Kosli","city":"Kosli","country":"India","lat":28.41195,"lng":76.4647},{"code":"RTZ","name":"Ratona","city":"Ratona","country":"India","lat":23.83539,"lng":78.68537},{"code":"SGO","name":"Saugor","city":"Saugor","country":"India","lat":23.84735,"lng":78.74292},{"code":"KUV","name":"Kundara","city":"Kundara","country":"India","lat":8.96037,"lng":76.67855},{"code":"DEC","name":"Delhi Cantt","city":"Delhi Cantt","country":"India","lat":28.61353,"lng":77.11658},{"code":"MKRN","name":"Makronia","city":"Makronia","country":"India","lat":23.86705,"lng":78.80808},{"code":"LDA","name":"Lidhora Khurd","city":"Lidhora Khurd","country":"India","lat":23.85297,"lng":78.87232},{"code":"KYX","name":"Karhiya Bhadeli","city":"Karhiya Bhadeli","country":"India","lat":23.85846,"lng":79.50456},{"code":"GTY","name":"Gola Pati","city":"Gola Pati","country":"India","lat":23.79878,"lng":79.73865},{"code":"SAO","name":"Sagoni","city":"Sagoni","country":"India","lat":23.8119,"lng":79.81144},{"code":"SYA","name":"Salaia","city":"Salaia","country":"India","lat":23.84608,"lng":79.96912},{"code":"KMLR","name":"Kamalur","city":"Kamalur","country":"India","lat":18.85452,"lng":81.27689},{"code":"MJGP","name":"Majhgawan Phata","city":"Majhgawan Phata","country":"India","lat":23.88313,"lng":80.34747},{"code":"KMZ","name":"Katni Murwara","city":"Katni Murwara","country":"India","lat":23.83436,"lng":80.40148},{"code":"KNPS","name":"Kendposi","city":"Kendposi","country":"India","lat":22.29485,"lng":85.73248},{"code":"BKO","name":"Bindki Road","city":"Bindki Road","country":"India","lat":26.11656,"lng":80.58056},{"code":"KSQ","name":"Kanspur Gugauli","city":"Kanspur Gugauli","country":"India","lat":26.0743,"lng":80.62584},{"code":"NGTN","name":"Nagothane","city":"Nagothane","country":"India","lat":18.53993,"lng":73.14077},{"code":"KNF","name":"Khanudih","city":"Khanudih","country":"India","lat":23.82022,"lng":86.19216},{"code":"AGD","name":"Agasod","city":"Agasod","country":"India","lat":24.23402,"lng":78.21691},{"code":"KOA","name":"Karonda","city":"Karonda","country":"India","lat":24.33027,"lng":78.26548},{"code":"MXS","name":"Mohasa","city":"Mohasa","country":"India","lat":24.37869,"lng":78.2889},{"code":"KORI","name":"Khori","city":"Khori","country":"India","lat":28.18727,"lng":76.49809},{"code":"DUA","name":"Dhaura","city":"Dhaura","country":"India","lat":24.44965,"lng":78.32179},{"code":"JLN","name":"Jakhalaun","city":"Jakhalaun","country":"India","lat":24.54736,"lng":78.34191},{"code":"JRO","name":"Jiron","city":"Jiron","country":"India","lat":24.60853,"lng":78.36194},{"code":"LAR","name":"Lalitpur","city":"Lalitpur","country":"India","lat":24.68822,"lng":78.39579},{"code":"DWA","name":"Dailwara","city":"Dailwara","country":"India","lat":24.78059,"lng":78.39295},{"code":"JHA","name":"Jakhaura","city":"Jakhaura","country":"India","lat":24.87082,"lng":78.40051},{"code":"GKB","name":"Ghataka Varana","city":"Ghataka Varana","country":"India","lat":25.50688,"lng":76.16035},{"code":"LRD","name":"Lar Road","city":"Lar Road","country":"India","lat":26.21389,"lng":83.91018},{"code":"LHM","name":"Lehra Muhabbat","city":"Lehra Muhabbat","country":"India","lat":30.23604,"lng":75.16282},{"code":"JL","name":"Jalgaon Jn","city":"Jalgaon Jn","country":"India","lat":21.01812,"lng":75.56287},{"code":"ARE","name":"Arnetha","city":"Arnetha","country":"India","lat":25.38978,"lng":76.01867},{"code":"LBG","name":"Limbgaon","city":"Limbgaon","country":"India","lat":19.17646,"lng":77.20613},{"code":"KPTN","name":"Keshorai Patan","city":"Keshorai Patan","country":"India","lat":25.32452,"lng":75.93773},{"code":"GNCN","name":"Gurla N Cabin","city":"Gurla N Cabin","country":"India","lat":25.29723,"lng":75.90466},{"code":"HPR","name":"Hirapur","city":"Hirapur","country":"India","lat":20.42454,"lng":74.93666},{"code":"GQLN","name":"Gurla N","city":"Gurla N","country":"India","lat":25.2936,"lng":75.9003},{"code":"MASK","name":"Maisar Khana","city":"Maisar Khana","country":"India","lat":30.09981,"lng":75.13917},{"code":"LKBL","name":"Lakhabawal","city":"Lakhabawal","country":"India","lat":22.40922,"lng":69.99951},{"code":"GQLW","name":"Gurla W","city":"Gurla W","country":"India","lat":25.29033,"lng":75.88483},{"code":"KZY","name":"Kayalpattinam","city":"Kayalpattinam","country":"India","lat":8.56691,"lng":78.09973},{"code":"GQL","name":"Gurla","city":"Gurla","country":"India","lat":25.27023,"lng":75.88527},{"code":"SNJL","name":"Sanjali","city":"Sanjali","country":"India","lat":21.57581,"lng":72.98861},{"code":"KURO","name":"Korari","city":"Korari","country":"India","lat":26.48788,"lng":80.529},{"code":"KSB","name":"Kosamba Jn","city":"Kosamba Jn","country":"India","lat":21.46405,"lng":72.9546},{"code":"KCCN","name":"Kccn","city":"Kccn","country":"India","lat":25.23908,"lng":75.87927},{"code":"KMNP","name":"Kishan Manpura","city":"Kishan Manpura","country":"India","lat":27.29955,"lng":75.50495},{"code":"STN","name":"Sitarampur","city":"Sitarampur","country":"India","lat":23.72386,"lng":86.89647},{"code":"TNW","name":"Thapar Nagar","city":"Thapar Nagar","country":"India","lat":23.7692,"lng":86.70137},{"code":"MAI","name":"Mehsi","city":"Mehsi","country":"India","lat":26.3549,"lng":85.09632},{"code":"LMT","name":"Almatti","city":"Almatti","country":"India","lat":16.3459,"lng":75.9005},{"code":"KXK","name":"Kharkhauda","city":"Kharkhauda","country":"India","lat":28.83344,"lng":77.73904},{"code":"LKDU","name":"Lankalakoderu","city":"Lankalakoderu","country":"India","lat":16.53452,"lng":81.68124},{"code":"ABKP","name":"Ambikapur","city":"Ambikapur","country":"India","lat":23.13703,"lng":83.14511},{"code":"LM","name":"Limbdi","city":"Limbdi","country":"India","lat":22.56604,"lng":71.7896},{"code":"LGO","name":"Lalgopalganj","city":"Lalgopalganj","country":"India","lat":25.6422,"lng":81.63019},{"code":"CI","name":"Chhapra Kacheri","city":"Chhapra Kacheri","country":"India","lat":25.78599,"lng":84.74709},{"code":"GJH","name":"Goldinganj","city":"Goldinganj","country":"India","lat":25.75417,"lng":84.82725},{"code":"LAP","name":"Lohapur","city":"Lohapur","country":"India","lat":24.30236,"lng":87.96372},{"code":"JAQ","name":"Jandrapeta","city":"Jandrapeta","country":"India","lat":15.80952,"lng":80.33368},{"code":"CLX","name":"Chirala","city":"Chirala","country":"India","lat":15.83076,"lng":80.3536},{"code":"VRVL","name":"Viravalli","city":"Viravalli","country":"India","lat":16.61595,"lng":80.9122},{"code":"KUP","name":"Kup","city":"Kup","country":"India","lat":30.60073,"lng":75.85285},{"code":"LLJ","name":"Lalganj","city":"Lalganj","country":"India","lat":26.17239,"lng":80.97318},{"code":"CKB","name":"Chauth Ka Barwara","city":"Chauth Ka Barwara","country":"India","lat":26.05133,"lng":76.14905},{"code":"CRKR","name":"Chaurakheri","city":"Chaurakheri","country":"India","lat":24.56723,"lng":77.12202},{"code":"DXD","name":"Digod","city":"Digod","country":"India","lat":25.19634,"lng":76.0154},{"code":"KJME","name":"Kajoragram","city":"Kajoragram","country":"India","lat":23.61533,"lng":87.18467},{"code":"MAE","name":"Matheran","city":"Matheran","country":"India","lat":18.98924,"lng":73.27091},{"code":"MADA","name":"Maonda","city":"Maonda","country":"India","lat":27.80948,"lng":75.82767},{"code":"VRPD","name":"Virapandy Road","city":"Virapandy Road","country":"India","lat":11.59699,"lng":78.07458},{"code":"KBN","name":"Karbigwan","city":"Karbigwan","country":"India","lat":26.2005,"lng":80.50263},{"code":"AUNG","name":"Aung","city":"Aung","country":"India","lat":26.16423,"lng":80.5445},{"code":"LNN","name":"Lonand","city":"Lonand","country":"India","lat":18.04077,"lng":74.19048},{"code":"SLV","name":"Sandalpur","city":"Sandalpur","country":"India","lat":26.11349,"lng":78.1964},{"code":"STLI","name":"Sithouli","city":"Sithouli","country":"India","lat":26.14559,"lng":78.187},{"code":"GWL","name":"Gwalior Jn","city":"Gwalior Jn","country":"India","lat":26.21648,"lng":78.18229},{"code":"RRU","name":"Rayaru","city":"Rayaru","country":"India","lat":26.30745,"lng":78.12986},{"code":"BAO","name":"Banmor","city":"Banmor","country":"India","lat":26.35557,"lng":78.09893},{"code":"KXA","name":"Kuanriya","city":"Kuanriya","country":"India","lat":25.13067,"lng":74.00015},{"code":"NUB","name":"Nurabad","city":"Nurabad","country":"India","lat":26.40604,"lng":78.07809},{"code":"SANK","name":"Sank","city":"Sank","country":"India","lat":26.43052,"lng":78.05975},{"code":"MRA","name":"Morena","city":"Morena","country":"India","lat":26.5005,"lng":78.00344},{"code":"HET","name":"Hetampur","city":"Hetampur","country":"India","lat":26.61115,"lng":77.94297},{"code":"GHER","name":"Gher","city":"Gher","country":"India","lat":26.66695,"lng":77.95098},{"code":"DHO","name":"Dhaulpur","city":"Dhaulpur","country":"India","lat":26.69759,"lng":77.90605},{"code":"KZB","name":"Kurumbur","city":"Kurumbur","country":"India","lat":8.58575,"lng":78.03964},{"code":"NCU","name":"Nallacheruvu","city":"Nallacheruvu","country":"India","lat":14.02057,"lng":78.17773},{"code":"MIA","name":"Mania","city":"Mania","country":"India","lat":26.80581,"lng":77.91965},{"code":"JJ","name":"Jajau","city":"Jajau","country":"India","lat":26.93456,"lng":77.93673},{"code":"BFP","name":"Bilochpura Agra","city":"Bilochpura Agra","country":"India","lat":27.20262,"lng":77.98717},{"code":"LWS","name":"Lukwasa","city":"Lukwasa","country":"India","lat":25.1102,"lng":77.5901},{"code":"RNKA","name":"Runkuta","city":"Runkuta","country":"India","lat":27.22285,"lng":77.89793},{"code":"TKEC","name":"Tuglakabad East Cabin","city":"Tuglakabad East Cabin","country":"India","lat":28.5477,"lng":77.27646},{"code":"MALA","name":"Mala","city":"Mala","country":"India","lat":28.59285,"lng":79.91697},{"code":"MBO","name":"Mairabari","city":"Mairabari","country":"India","lat":26.45084,"lng":92.42106},{"code":"MAA","name":"Maval","city":"Maval","country":"India","lat":24.43228,"lng":72.70044},{"code":"KWI","name":"Kivarli","city":"Kivarli","country":"India","lat":24.54051,"lng":72.84242},{"code":"SLBN","name":"Salai Banwa","city":"Salai Banwa","country":"India","lat":24.42121,"lng":83.0089},{"code":"NKJ","name":"New Katni Jn","city":"New Katni Jn","country":"India","lat":23.81364,"lng":80.42045},{"code":"MMM","name":"Mandapam","city":"Mandapam","country":"India","lat":9.28052,"lng":79.15735},{"code":"MJHL","name":"Majada Halt","city":"Majada Halt","country":"India","lat":28.46176,"lng":78.74321},{"code":"MLMG","name":"Mallemadugu","city":"Mallemadugu","country":"India","lat":17.32514,"lng":80.16059},{"code":"RTGN","name":"Ratangaon","city":"Ratangaon","country":"India","lat":23.83658,"lng":79.89251},{"code":"PTHD","name":"Patohan","city":"Patohan","country":"India","lat":23.91402,"lng":80.19047},{"code":"MLSU","name":"Malsailu","city":"Malsailu","country":"India","lat":19.86805,"lng":77.12324},{"code":"ABS","name":"Abohar","city":"Abohar","country":"India","lat":30.13938,"lng":74.19569},{"code":"MONJ","name":"Monglajhora","city":"Monglajhora","country":"India","lat":26.25924,"lng":89.96331},{"code":"MHO","name":"Mahpur","city":"Mahpur","country":"India","lat":25.60517,"lng":83.24698},{"code":"GSPR","name":"Gosalpur","city":"Gosalpur","country":"India","lat":23.38181,"lng":80.05923},{"code":"MML","name":"Madan Mahal","city":"Madan Mahal","country":"India","lat":23.15948,"lng":79.92042},{"code":"MLP","name":"Mallapur","city":"Mallapur","country":"India","lat":15.67245,"lng":75.61022},{"code":"ABW","name":"Abutara Halt","city":"Abutara Halt","country":"India","lat":26.07078,"lng":89.58687},{"code":"VGL","name":"Vaghli","city":"Vaghli","country":"India","lat":20.52265,"lng":75.07434},{"code":"MGB","name":"Mudigubba","city":"Mudigubba","country":"India","lat":14.34993,"lng":77.995},{"code":"MKSR","name":"Mokalsar","city":"Mokalsar","country":"India","lat":25.62535,"lng":72.51804},{"code":"MYK","name":"Mayakonda","city":"Mayakonda","country":"India","lat":14.28421,"lng":76.08138},{"code":"DKZ","name":"Delhi Kishanganj","city":"Delhi Kishanganj","country":"India","lat":28.66473,"lng":77.20126},{"code":"MORA","name":"Moraiya","city":"Moraiya","country":"India","lat":22.94683,"lng":72.45481},{"code":"KRZ","name":"Kharawar","city":"Kharawar","country":"India","lat":28.83154,"lng":76.68104},{"code":"MKDD","name":"Mukundwadi Halt","city":"Mukundwadi Halt","country":"India","lat":19.85954,"lng":75.36755},{"code":"ABX","name":"Ambari","city":"Ambari","country":"India","lat":19.68936,"lng":78.21668},{"code":"BQT","name":"Baktar Nagar","city":"Baktar Nagar","country":"India","lat":23.58995,"lng":87.1569},{"code":"RNG","name":"Raniganj","city":"Raniganj","country":"India","lat":23.60285,"lng":87.11698},{"code":"NMC","name":"Nimcha","city":"Nimcha","country":"India","lat":23.62672,"lng":87.09029},{"code":"KPK","name":"Kalipahari","city":"Kalipahari","country":"India","lat":23.6652,"lng":87.01593},{"code":"ASNE","name":"Asansol East","city":"Asansol East","country":"India","lat":23.68643,"lng":86.99118},{"code":"ASN","name":"Asansol Jn","city":"Asansol Jn","country":"India","lat":23.69144,"lng":86.97515},{"code":"BCQ","name":"Barachak","city":"Barachak","country":"India","lat":23.70673,"lng":86.92813},{"code":"MIAL","name":"Milaoli","city":"Milaoli","country":"India","lat":26.29642,"lng":78.12096},{"code":"ZARP","name":"Zarap","city":"Zarap","country":"India","lat":15.94768,"lng":73.73411},{"code":"MGI","name":"Manigachi","city":"Manigachi","country":"India","lat":26.21372,"lng":86.14661},{"code":"MHN","name":"Mahanadi","city":"Mahanadi","country":"India","lat":26.8823,"lng":88.31863},{"code":"MKRD","name":"Machhakunda","city":"Machhakunda","country":"India","lat":18.56688,"lng":82.66696},{"code":"MHI","name":"Manihari","city":"Manihari","country":"India","lat":25.34322,"lng":87.61973},{"code":"TOU","name":"Telaprolu","city":"Telaprolu","country":"India","lat":16.59882,"lng":80.89056},{"code":"MDKD","name":"Madhukunda","city":"Madhukunda","country":"India","lat":23.62663,"lng":86.86909},{"code":"PMPR","name":"Pampore","city":"Pampore","country":"India","lat":26.2451,"lng":80.48354},{"code":"MRJ","name":"Miraj Jn","city":"Miraj Jn","country":"India","lat":16.81995,"lng":74.63884},{"code":"BHA","name":"Bhandai","city":"Bhandai","country":"India","lat":27.06906,"lng":77.96681},{"code":"MNWL","name":"Manwal","city":"Manwal","country":"India","lat":32.76911,"lng":75.13222},{"code":"AGC","name":"Agra Cantt","city":"Agra Cantt","country":"India","lat":27.15799,"lng":77.99015},{"code":"RKM","name":"Raja Ki Mandi","city":"Raja Ki Mandi","country":"India","lat":27.19381,"lng":77.99661},{"code":"KXM","name":"Kitham","city":"Kitham","country":"India","lat":27.25371,"lng":77.81705},{"code":"FHT","name":"Farah Town","city":"Farah Town","country":"India","lat":27.31818,"lng":77.75809},{"code":"MDVL","name":"Mandavalli","city":"Mandavalli","country":"India","lat":16.51881,"lng":81.16074},{"code":"FAR","name":"Farah","city":"Farah","country":"India","lat":27.33447,"lng":77.74366},{"code":"CPLE","name":"Chinpai","city":"Chinpai","country":"India","lat":23.83968,"lng":87.46064},{"code":"BAD","name":"Baad","city":"Baad","country":"India","lat":27.39594,"lng":77.68965},{"code":"VRBD","name":"Vrindaban Road","city":"Vrindaban Road","country":"India","lat":27.55546,"lng":77.62283},{"code":"AJH","name":"Ajhai","city":"Ajhai","country":"India","lat":27.63615,"lng":77.55842},{"code":"CHJ","name":"Chata","city":"Chata","country":"India","lat":27.71199,"lng":77.50298},{"code":"KSV","name":"Kosi Kalan","city":"Kosi Kalan","country":"India","lat":27.78855,"lng":77.446},{"code":"BNCR","name":"Banchari","city":"Banchari","country":"India","lat":27.95309,"lng":77.36255},{"code":"MJNL","name":"Majri Nangal","city":"Majri Nangal","country":"India","lat":28.012,"lng":76.55487},{"code":"DSPT","name":"Danishpet","city":"Danishpet","country":"India","lat":11.85892,"lng":78.13826},{"code":"SHLK","name":"Sholaka","city":"Sholaka","country":"India","lat":27.97364,"lng":77.36058},{"code":"PWL","name":"Palwal","city":"Palwal","country":"India","lat":28.15184,"lng":77.34223},{"code":"AST","name":"Asaoti","city":"Asaoti","country":"India","lat":28.25088,"lng":77.32357},{"code":"PYLA","name":"Piyala Block Hut","city":"Piyala Block Hut","country":"India","lat":28.28813,"lng":77.31782},{"code":"BVH","name":"Ballabgarh","city":"Ballabgarh","country":"India","lat":28.34086,"lng":77.31278},{"code":"TNT","name":"Tinnappatti","city":"Tinnappatti","country":"India","lat":11.81242,"lng":78.0988},{"code":"KPPR","name":"Karuppur","city":"Karuppur","country":"India","lat":11.72418,"lng":78.09038},{"code":"FDN","name":"Faridabad New Town","city":"Faridabad New Town","country":"India","lat":28.37625,"lng":77.30937},{"code":"TKDC","name":"Tuglakabad Cabin","city":"Tuglakabad Cabin","country":"India","lat":28.45885,"lng":77.30303},{"code":"TKD","name":"Tuglakabad","city":"Tuglakabad","country":"India","lat":28.51196,"lng":77.29405},{"code":"MIN","name":"Mihinpurwa","city":"Mihinpurwa","country":"India","lat":28.02734,"lng":81.38447},{"code":"MME","name":"Mul Marora","city":"Mul Marora","country":"India","lat":20.05347,"lng":79.65828},{"code":"MDPB","name":"Madhopur Punjab","city":"Madhopur Punjab","country":"India","lat":32.35917,"lng":75.59473},{"code":"GILA","name":"Ghiala","city":"Ghiala","country":"India","lat":32.15162,"lng":75.64394},{"code":"MEX","name":"Mukerian","city":"Mukerian","country":"India","lat":31.94187,"lng":75.61184},{"code":"MLC","name":"Malkisar","city":"Malkisar","country":"India","lat":28.65423,"lng":73.86265},{"code":"KVJ","name":"Keshavganj","city":"Keshavganj","country":"India","lat":24.85616,"lng":73.07133},{"code":"NEMA","name":"Nema Halt","city":"Nema Halt","country":"India","lat":25.40959,"lng":85.07225},{"code":"MV","name":"Mayiladuturai Jn","city":"Mayiladuturai Jn","country":"India","lat":11.09524,"lng":79.62868},{"code":"NILE","name":"Nimtita","city":"Nimtita","country":"India","lat":24.62534,"lng":88.00764},{"code":"BLRD","name":"Bala Road","city":"Bala Road","country":"India","lat":22.80462,"lng":71.70375},{"code":"MRTY","name":"Murti","city":"Murti","country":"India","lat":18.68189,"lng":76.59157},{"code":"MCJ","name":"Manjattidal","city":"Manjattidal","country":"India","lat":10.79206,"lng":78.7314},{"code":"VG","name":"Viramgam Jn","city":"Viramgam Jn","country":"India","lat":23.1291,"lng":72.05297},{"code":"RHNE","name":"Rohini","city":"Rohini","country":"India","lat":20.36287,"lng":74.8598},{"code":"XSK","name":"Sokali","city":"Sokali","country":"India","lat":23.10319,"lng":72.09034},{"code":"JKA","name":"Jakhvada","city":"Jakhvada","country":"India","lat":23.08721,"lng":72.13538},{"code":"VCN","name":"Virochannagar","city":"Virochannagar","country":"India","lat":23.07848,"lng":72.19618},{"code":"TGR2","name":"Block And Catch Siding Cabine No.2","city":"Block And Catch Siding Cabine No.2","country":"India","lat":19.70141,"lng":73.49995},{"code":"MZH","name":"Mauhari","city":"Mauhari","country":"India","lat":23.11866,"lng":81.76947},{"code":"MVD","name":"Mulvad","city":"Mulvad","country":"India","lat":16.62037,"lng":75.74693},{"code":"NDV","name":"Nidvanda","city":"Nidvanda","country":"India","lat":13.24514,"lng":77.27313},{"code":"CE","name":"Chharodi","city":"Chharodi","country":"India","lat":23.04912,"lng":72.25092},{"code":"MRHA","name":"Murahara","city":"Murahara","country":"India","lat":24.91338,"lng":86.93453},{"code":"WSE","name":"Vasan Iyawa","city":"Vasan Iyawa","country":"India","lat":23.02656,"lng":72.31313},{"code":"NANR","name":"Naranpur","city":"Naranpur","country":"India","lat":21.61721,"lng":85.63787},{"code":"SAU","name":"Sanand","city":"Sanand","country":"India","lat":23.02422,"lng":72.38475},{"code":"GGM","name":"Gora Ghuma","city":"Gora Ghuma","country":"India","lat":23.03885,"lng":72.4544},